time_millisecond_,latitude,longitude,height_above_takeoff_feet_,height_above_ground_at_drone_location_feet_,ground_elevation_at_drone_location_feet_,altitude_above_seaLevel_feet_,height_sonar_feet_,speed_mph_,distance_feet_,mileage_feet_,satellites,gpslevel,max_altitude_feet_,max_ascent_feet_,max_speed_mph_,max_distance_feet_,xSpeed_mph_,ySpeed_mph_,zSpeed_mph_,compass_heading_degrees_,pitch_degrees_,roll_degrees_,isPhoto,isVideo,rc_elevator,rc_aileron,rc_throttle,rc_rudder,rc_elevator_percent_,rc_aileron_percent_,rc_throttle_percent_,rc_rudder_percent_,gimbal_heading_degrees_,gimbal_pitch_degrees_,altitude_feet_,ascent_feet_,flycStateRaw,flycState
0,51.5195086171253,5.86065102748178,0,0,95.681252405632,95.681252405632,0.328084,0,0,0,15,5,95.681252405632,0,0,0,0,0,0,264.2,-1.2,0.5,0,0,372,386,387,1684,-99,-97,-97,100,0,0,95.681252405632,0,41,Motors_Started
100,51.519508579137,5.86065102647415,0,0,95.681252405632,95.681252405632,0.328084,0,0.0138619098924,0.0138619098924,15,5,95.681252405632,0,0,0.0138619098924,0,0,0,264.2,-1.2,0.5,0,0,370,384,389,1684,-99,-97,-96,100,0,0,95.681252405632,0,41,Motors_Started
200,51.5195085335894,5.86065101188896,0,0,95.681252405632,95.681252405632,0.328084,0,0.0306829406144,0.030806595474,15,5,95.681252405632,0,0,0.0306829406144,0,0,0,264.2,-1.2,0.5,0,0,370,383,391,1684,-99,-97,-96,100,0,0,95.681252405632,0,41,Motors_Started
300,51.5195085184123,5.86065101972194,0,0,95.681252405632,95.681252405632,0.328084,0,0.036058400104,0.0366223765,15,5,95.681252405632,0,0,0.036058400104,0,0,0,264.3,-1.2,0.5,0,0,369,383,387,1684,-99,-97,-97,100,0,0,95.681252405632,0,41,Motors_Started
400,51.5195085113611,5.86065103126705,0,0,95.681252405632,95.681252405632,0.328084,0,0.03859744218,0.04029527688,15,5,95.681252405632,0,0,0.03859744218,0,0,0,264.2,-1.2,0.5,0,0,369,383,382,1684,-99,-97,-97,100,0,0,95.681252405632,0,41,Motors_Started
500,51.5195084783233,5.86065100829386,0,0,95.681252405632,95.681252405632,0.328084,0,0.050828741784,0.053428807484,15,5,95.681252405632,0,0,0.050828741784,0,0,0,264.2,-1.2,0.5,0,0,369,383,382,1684,-99,-97,-97,100,0,0,95.681252405632,0,41,Motors_Started
600,51.5195084428264,5.86065104105505,0,0,95.681252405632,95.681252405632,0.328084,0,0.063667324872,0.068363847332,15,5,95.681252405632,0,0,0.063667324872,0,0,0,264.2,-1.2,0.5,0,0,369,383,382,1684,-99,-97,-97,100,0,0,95.681252405632,0,41,Motors_Started
700,51.5195084298477,5.86065102750845,0,0,95.681252405632,95.681252405632,0.328084,0,0.068328086176,0.074010172972,15,5,95.681252405632,0,0,0.068328086176,0,0,0,264.2,-1.2,0.5,0,0,369,383,384,1684,-99,-97,-97,100,0,0,95.681252405632,0,41,Motors_Started
800,51.5195084243762,5.86065102020553,0,0,95.681252405632,95.681252405632,0.328084,0,0.070343834272,0.076604989328,15,5,95.681252405632,0,0,0.070343834272,0,0,0,264.2,-1.3,0.5,0,0,368,383,382,1684,-99,-97,-97,100,0,0,95.681252405632,0,41,Motors_Started
900,51.5195083908498,5.86065094582705,0,0,95.681252405632,95.681252405632,0.328084,0,0.084612207432,0.097456039864,15,5,95.681252405632,0,0,0.084612207432,0,0,0,264.2,-1.2,0.5,0,0,367,382,386,1684,-100,-97,-97,100,0,0,95.681252405632,0,41,Motors_Started
1000,51.5195083465691,5.86065077404613,0,0,95.681252405632,95.681252405632,0.328084,0,0.114256565336,0.13966863964,15,5,95.681252405632,0,0,0.114256565336,0,0,0,264.2,-1.2,0.5,0,0,367,382,383,1684,-100,-97,-97,100,0,0,95.681252405632,0,41,Motors_Started
1100,51.519508332457,5.86065069343431,0,0,95.681252405632,95.681252405632,0.328084,0,0.128602038236,0.158680123188,15,5,95.681252405632,0,0,0.128602038236,0,0,0,264.2,-1.2,0.5,0,0,367,380,379,1684,-100,-98,-98,100,0,0,95.681252405632,0,41,Motors_Started
1200,51.5195083263601,5.86065061620849,0,0,95.681252405632,95.681252405632,0.328084,0,0.141322839168,0.176353024016,15,5,95.681252405632,0,0,0.141322839168,0,0,0,264.2,-1.2,0.5,0,0,474,443,512,1642,-83,-88,-78,94,0,0,95.681252405632,0,41,Motors_Started
1300,51.5195082929216,5.86065059289713,0,0,95.681252405632,95.681252405632,0.328084,0,0.154031500992,0.189651580872,15,5,95.681252405632,0,0,0.154031500992,0,0,0,264.2,-1.2,0.5,0,0,1024,965,1024,1081,0,-9,0,9,0,0,95.681252405632,0,41,Motors_Started
1400,51.5195082366752,5.86065062421013,0,0,95.681252405632,95.681252405632,0.328084,0,0.1662811733,0.211369429336,15,5,95.681252405632,0,0,0.1662811733,0,0,0,264.2,-1.2,0.5,0,0,1024,1024,1024,1024,0,0,0,0,0,0,95.681252405632,0,41,Motors_Started
1500,51.5195082203354,5.86065059515246,0,0,95.681252405632,95.681252405632,0.328084,0,0.174904205072,0.220261161904,15,5,95.681252405632,0,0,0.174904205072,0,0,0,264.2,-1.2,0.5,0,0,1024,1024,1024,1024,0,0,0,0,0,0,95.681252405632,0,10,Assisted_Takeoff
1600,51.5195082119717,5.86065055517611,0,0,95.681252405632,95.681252405632,0.328084,0,0.18261483524,0.22983596536,15,5,95.681252405632,0,0,0.18261483524,0,0,0,264.2,-1.2,0.5,0,0,1024,1024,1024,1024,0,0,0,0,0,0,95.681252405632,0,10,Assisted_Takeoff
1700,51.5195081771653,5.8606505063256,0,0,95.681252405632,95.681252405632,0.328084,0,0.199412079872,0.24669620212,15,5,95.681252405632,0,0,0.199412079872,0,0,0,264.2,-1.2,0.5,0,0,1024,1024,1024,1024,0,0,0,0,0,0,95.681252405632,0,10,Assisted_Takeoff
1800,51.5195081346858,5.86065045097585,0,0,95.681252405632,95.681252405632,0.328084,0,0.21934547946,0.26664863058,15,5,95.681252405632,0,0,0.21934547946,0,0,0,264.2,-1.2,0.5,0,0,1024,1024,1024,1024,0,0,0,0,0,0,95.681252405632,0,10,Assisted_Takeoff
1900,51.5195080799147,5.86065039679206,0,0,95.681252405632,95.681252405632,0.328084,0,0.242729994644,0.290114510596,15,5,95.681252405632,0,0,0.242729994644,0,0,0,264.2,-1.2,0.5,0,0,1024,1024,1024,1024,0,0,0,0,0,0,95.681252405632,0,10,Assisted_Takeoff
2000,51.5195080194766,5.86065033810536,0,0,95.681252405632,95.681252405632,0.328084,0,0.268404536148,0.315877962864,15,5,95.681252405632,0,0,0.268404536148,0,0,0,264.2,-1.2,0.5,0,0,1024,1024,1024,1024,0,0,0,0,0,0,95.681252405632,0,10,Assisted_Takeoff
2100,51.5195079598951,5.86065028284596,0,0,95.681252405632,95.681252405632,0.328084,0,0.293390429336,0.3409777012,15,5,95.681252405632,0,0,0.293390429336,0,0,0,264.2,-1.2,0.5,0,0,1024,1024,1024,1024,0,0,0,0,0,0,95.681252405632,0,10,Assisted_Takeoff
2200,51.519507898037,5.86065022502577,0,0,95.681252405632,95.681252405632,0.328084,0,0.31940781862,0.36708662592,15,5,95.681252405632,0,0,0.31940781862,0,0,0,264.2,-1.2,0.5,0,0,1024,1024,1024,1024,0,0,0,0,0,0,95.681252405632,0,10,Assisted_Takeoff
2300,51.5195077757571,5.8606501407698,0,0,95.681252405632,95.681252405632,0.328084,0,0.3670931876,0.41562665372,15,5,95.681252405632,0,0,0.3670931876,0,0,0,264.2,-1.3,0.5,0,0,1024,1024,1024,1024,0,0,0,0,0,0,95.681252405632,0,10,Assisted_Takeoff
2400,51.5195077179051,5.86065008378255,0,0,95.681252405632,95.681252405632,0.328084,0,0.39183728288,0.44038387236,15,5,95.681252405632,0,0,0.39183728288,0,0,0,264.2,-1.2,0.5,0,0,1024,1024,1024,1024,0,0,0,0,0,0,95.681252405632,0,10,Assisted_Takeoff
2500,51.5195077041414,5.86065003146515,0,0,95.681252405632,95.681252405632,0.328084,0,0.40260171892,0.45327757356,15,5,95.681252405632,0,0,0.40260171892,0,0,0,264.2,-1.2,0.5,0,0,1024,1024,1024,1024,0,0,0,0,0,0,95.681252405632,0,10,Assisted_Takeoff
2600,51.5195077015034,5.86064997568688,0,0,95.681252405632,95.681252405632,0.328084,0,0.4106299344,0.4659777052,15,5,95.681252405632,0,0,0.4106299344,0,0,0,264.2,-1.2,0.5,0,0,1024,1024,1024,1024,0,0,0,0,0,0,95.681252405632,0,10,Assisted_Takeoff
2700,51.5195077297276,5.86064993293376,0,0,95.681252405632,95.681252405632,0.328084,0,0.40813321516,0.48013124896,15,5,95.681252405632,0,0,0.4106299344,0,0,0,264.2,-1.2,0.5,0,0,1024,1024,1024,1024,0,0,0,0,0,0,95.681252405632,0,10,Assisted_Takeoff
2800,51.5195076935566,5.86064987558597,0,0,95.681252405632,95.681252405632,0.328084,0,0.42653544672,0.49866799496,15,5,95.681252405632,0,0,0.42653544672,0,0,0,264.2,-1.2,0.5,0,0,1024,1024,1024,1024,0,0,0,0,0,0,95.681252405632,0,10,Assisted_Takeoff
2900,51.5195077242788,5.86064978248939,0,0,95.681252405632,95.681252405632,0.328084,0,0.4312828222,0.52259188024,15,5,95.681252405632,0,0,0.4312828222,0,0,0,264.2,-1.2,0.5,0,0,1024,1024,1024,1024,0,0,0,0,0,0,95.681252405632,0,10,Assisted_Takeoff
3000,51.5195077747801,5.86064967241289,0,0,95.681252405632,95.681252405632,0.328084,0,0.43484581444,0.55364175,15,5,95.681252405632,0,0,0.43484581444,0,0,0,264.2,-1.2,0.5,0,0,1024,1024,1024,1024,0,0,0,0,0,0,95.681252405632,0,10,Assisted_Takeoff
3100,51.5195079898063,5.86064954548382,0,0,95.681252405632,95.681252405632,0.328084,0,0.4069225852,0.63721786816,15,5,95.681252405632,0,0,0.43484581444,0,0,0,264.2,-1.2,0.5,0,0,1024,1024,1024,1024,0,0,0,0,0,0,95.681252405632,0,10,Assisted_Takeoff
3200,51.5195080184995,5.86064947478218,0,0,95.681252405632,95.681252405632,0.328084,0,0.4146817718,0.6563812546,15,5,95.681252405632,0,0,0.43484581444,0,0,0,264.2,-1.2,0.5,0,0,1024,1024,1024,1024,0,0,0,0,0,0,95.681252405632,0,10,Assisted_Takeoff
3300,51.5195080330871,5.86064946077265,0,0,95.681252405632,95.681252405632,0.328084,0,0.41462927836,0.6625820422,15,5,95.681252405632,0,0,0.43484581444,0,0,0,264.2,-1.2,0.5,0,0,1024,1024,1024,1024,0,0,0,0,0,0,95.681252405632,0,10,Assisted_Takeoff
3400,51.5195080429588,5.86064945966693,0,0,95.681252405632,95.681252405632,0.328084,0,0.41300526256,0.6661909662,15,5,95.681252405632,0,0,0.43484581444,0,0,0,264.2,-1.2,0.5,0,0,1024,1024,1024,1024,0,0,0,0,0,0,95.681252405632,0,10,Assisted_Takeoff
3500,51.5195080291626,5.8606495661053,0,0,95.681252405632,95.681252405632,0.328084,0,0.39508203364,0.69087272552,15,5,95.681252405632,0,0,0.43484581444,0,0,0,264.2,-1.2,0.5,0,0,1024,1024,1024,1024,0,0,0,0,0,0,95.681252405632,0,10,Assisted_Takeoff
3600,51.5195080278435,5.86064953197594,0,0,95.681252405632,95.681252405632,0.328084,0,0.4018700916,0.6986384738,15,5,95.681252405632,0,0,0.43484581444,0,0,0,264.2,-1.2,0.5,0,0,1024,1024,1024,1024,0,0,0,0,0,0,95.681252405632,0,10,Assisted_Takeoff
3700,51.5195080245834,5.86064952743087,0,0,95.681252405632,95.681252405632,0.328084,0,0.40337599716,0.700213277,15,5,95.681252405632,0,0,0.43484581444,0,0,0,264.2,-1.2,0.5,0,0,1024,1024,1024,1024,0,0,0,0,0,0,95.681252405632,0,10,Assisted_Takeoff
3800,51.5195080207728,5.86064952850303,0,0,95.681252405632,95.681252405632,0.328084,0,0.40391733576,0.7016240382,15,5,95.681252405632,0,0,0.43484581444,0,0,0,264.2,-1.2,0.5,0,0,1024,1024,1024,1024,0,0,0,0,0,0,95.681252405632,0,10,Assisted_Takeoff
3900,51.5195080181413,5.86064950152945,0,0,95.681252405632,95.681252405632,0.328084,0,0.40960303148,0.70782154496,15,5,95.681252405632,0,0,0.43484581444,0,0,0,264.2,-1.2,0.5,0,0,1024,1024,1024,1024,0,0,0,0,0,0,95.681252405632,0,10,Assisted_Takeoff
4000,51.5195079987758,5.8606495238134,0,0,95.681252405632,95.681252405632,0.328084,0,0.4091863648,0.71651249012,15,5,95.681252405632,0,0,0.43484581444,0,0,0,264.2,-1.2,0.5,0,0,1024,1024,1024,1024,0,0,0,0,0,0,95.681252405632,0,10,Assisted_Takeoff
4100,51.5195079587291,5.86064946861165,0,0,95.681252405632,95.681252405632,0.328084,0,0.42772967248,0.7357611784,15,5,95.681252405632,0,0,0.43484581444,0,0,0,264.2,-1.2,0.5,0,0,1024,1024,1024,1024,0,0,0,0,0,0,95.681252405632,0,10,Assisted_Takeoff
4200,51.5195079068795,5.8606494070191,0,0,95.681252405632,95.681252405632,0.328084,0,0.44999017188,0.7592848012,15,5,95.681252405632,0,0,0.44999017188,0,0,0,264.2,-1.2,0.5,0,0,1024,1024,1024,1024,0,0,0,0,0,0,95.681252405632,0,10,Assisted_Takeoff
4300,51.5195078818275,5.86064934496361,0,0,95.681252405632,95.681252405632,0.328084,0,0.46677166848,0.77607942116,15,5,95.681252405632,0,0,0.46677166848,0,0,0,264.2,-1.2,0.5,0,0,1024,1024,1024,1024,0,0,0,0,0,0,95.681252405632,0,10,Assisted_Takeoff
4400,51.5195077890355,5.86064922512492,0,0,95.681252405632,95.681252405632,0.328084,0,0.50863846772,0.81951118108,15,5,95.681252405632,0,0,0.50863846772,0,0,0,264.2,-1.2,0.5,0,0,1024,1024,1024,1024,0,0,0,0,0,0,95.681252405632,0,10,Assisted_Takeoff
4500,51.5195077867101,5.86064916572057,0,0,95.681252405632,95.681252405632,0.328084,0,0.52004266756,0.83302496104,15,5,95.681252405632,0,0,0.52004266756,0,0,0,264.2,-1.2,0.5,0,0,1024,1024,1024,1024,0,0,0,0,0,0,95.681252405632,0,10,Assisted_Takeoff
4600,51.5195077882897,5.86064910437928,0,0,95.681252405632,95.681252405632,0.328084,0,0.53109581752,0.84696196936,15,5,95.681252405632,0,0,0.53109581752,0,0,0,264.2,-1.2,0.5,0,0,1024,1024,1024,1024,0,0,0,0,0,0,95.681252405632,0,10,Assisted_Takeoff
4700,51.519507756991,5.86064908590556,0,0,95.681252405632,95.681252405632,0.328084,0,0.54108925616,0.85912732408,15,5,95.681252405632,0,0,0.54108925616,0,0,0,264.2,-1.2,0.5,0,0,1024,1024,1024,1024,0,0,0,0,0,0,95.681252405632,0,10,Assisted_Takeoff
4800,51.5195076873033,5.86064915134189,0,0,95.681252405632,95.681252405632,0.328084,0,0.54452429564,0.88857614392,15,5,95.681252405632,0,0,0.54452429564,0,0,0,264.2,-1.2,0.5,0,0,1024,1024,1024,1024,0,0,0,0,0,0,95.681252405632,0,10,Assisted_Takeoff
4900,51.5195076282006,5.8606491242685,0,0,95.681252405632,95.681252405632,0.328084,0,0.56291668468,0.91099740448,15,5,95.681252405632,0,0,0.56291668468,0,0,0,264.2,-1.2,0.5,0,0,1024,1024,1037,1024,0,0,2,0,0,0,95.681252405632,0,10,Assisted_Takeoff
5000,51.5195075645414,5.86064908421385,0,0,95.681252405632,95.681252405632,0.328084,0,0.5849081552,0.935941631,15,5,95.681252405632,0,0,0.5849081552,0,0,0,264.2,-1.2,0.5,0,0,1024,1024,1277,1024,0,0,38,0,0,0,95.681252405632,0,10,Assisted_Takeoff
5100,51.5195075403884,5.86064903452178,0,0,95.681252405632,95.681252405632,0.328084,0,0.59920277508,0.95025593592,15,5,95.681252405632,0,0,0.59920277508,0,0,0,264.2,-1.2,0.5,0,0,1024,1024,1358,1024,0,0,51,0,0,0,95.681252405632,0,10,Assisted_Takeoff
5200,51.5195075096368,5.86064895775374,0,0,95.681252405632,95.681252405632,0.328084,0,0.61972771012,0.97098428304,15,5,95.681252405632,0,0,0.61972771012,0,0,0,264.2,-1.2,0.5,0,0,1024,1024,1408,1024,0,0,58,0,0,0,95.681252405632,0,10,Assisted_Takeoff
5300,51.519507475065,5.8606489404976,0,0,95.681252405632,95.681252405632,0.328084,0,0.63096130628,0.98418966404,15,5,95.681252405632,0,0,0.63096130628,0,0,0,264.2,-1.3,0.5,0,0,1024,1024,1392,1024,0,0,56,0,0,0,95.681252405632,0,10,Assisted_Takeoff
5400,51.5195074307192,5.860648932027,0,0,95.681252405632,95.681252405632,0.328084,0,0.64317915444,1.00048559632,15,5,95.681252405632,0,0,0.64317915444,0,0,0,264.3,-1.2,0.5,0,0,1024,1024,1380,1024,0,0,54,0,0,0,95.681252405632,0,10,Assisted_Takeoff
5500,51.5195073761533,5.86064889698639,0,0,95.681252405632,95.681252405632,0.328084,0,0.66252954876,1.02192260488,15,5,95.681252405632,0,0,0.66252954876,0,0,0,264.4,-1.4,0.5,0,0,1024,1024,1403,1024,0,0,57,0,0,0,95.681252405632,0,10,Assisted_Takeoff
5600,51.5195073160116,5.86064884557422,0,0,95.681252405632,95.681252405632,0.328084,0,0.68609254164,1.04677824872,15,5,95.681252405632,0,0,0.68609254164,0,0,0,264.8,-1.5,0.7,0,0,1024,1024,1412,1024,0,0,59,0,0,0,95.681252405632,0,10,Assisted_Takeoff
5700,51.5195072433504,5.86064885341408,0,0,95.681252405632,95.681252405632,0.328084,0,0.7034449044,1.07334649104,15,5,95.681252405632,0,0,0.7034449044,0,0,0,265.2,-1.8,0.3,0,0,1024,1024,1414,1024,0,0,59,0,0,0,95.681252405632,0,10,Assisted_Takeoff
5800,51.5195072403508,5.86064875957663,0,0,95.681252405632,95.681252405632,0.328084,0,0.71931760832,1.09467851272,15,5,95.681252405632,0,0,0.71931760832,0,0,-0.447388,265.3,-1.1,-0.3,0,0,1024,1024,1413,1024,0,0,59,0,0,0,95.681252405632,0,6,P-GPS
5900,51.5195072036718,5.86064859007556,0.328084,0.328084,95.681252405632,96.009336405632,0.656168,0.223694,0.75640422368,1.13541998384,15,5,96.009336405632,0.328084,0.223694,0.75640422368,0,-0.223694,-1.342164,265.3,-0.5,0.1,0,0,1024,1024,1414,1024,0,0,59,0,0,0,96.009336405632,0.328084,6,P-GPS
6000,51.5195071456796,5.86064835687332,0.328084,0.328084,95.681252405632,96.009336405632,0.984252,0.223694,0.80982286056,1.19243442136,15,5,96.009336405632,0.328084,0.223694,0.80982286056,0,-0.223694,-2.23694,265.3,0.1,0.3,0,0,1024,1024,1409,1024,0,0,58,0,0,0,96.009336405632,0.328084,6,P-GPS
6100,51.5195070911886,5.86064806878471,0.984252,0.984252,95.681252405632,96.665504405632,1.312336,0.223694,0.87243441112,1.2607940036,15,5,96.665504405632,0.984252,0.223694,0.87243441112,0,-0.223694,-3.131716,265.3,0.8,-0.1,0,0,1024,1024,1401,1024,0,0,57,0,0,0,96.665504405632,0.984252,6,P-GPS
6200,51.5195070146029,5.86064776948916,1.312336,1.312336,95.681252405632,96.993588405632,1.64042,0.223694,0.94283467584,1.33426185372,15,5,96.993588405632,1.312336,0.223694,0.94283467584,0,-0.223694,-3.579104,265.3,1.4,0.1,0,0,1024,1024,1340,1024,0,0,48,0,0,0,96.993588405632,1.312336,6,P-GPS
6300,51.5195069675115,5.86064743204794,1.968504,1.968504,95.681252405632,97.649756405632,2.296588,0.223694,1.0141568566,1.41277563576,15,5,97.649756405632,1.968504,0.223694,1.0141568566,0,-0.223694,-4.250186,265.2,2.9,0.6,0,0,1024,1024,1037,1024,0,0,2,0,0,0,97.649756405632,1.968504,6,P-GPS
6400,51.519506940297,5.86064708506138,2.624672,2.624672,95.681252405632,98.305924405632,2.952756,0.223694,1.08414701632,1.49217196376,15,5,98.305924405632,2.624672,0.223694,1.08414701632,0,-0.223694,-4.47388,265.2,3.2,0.4,0,0,1024,1024,1024,1024,0,0,0,0,0,0,98.305924405632,2.624672,6,P-GPS
6500,51.5195070332681,5.86064669855969,3.28084,3.28084,95.681252405632,98.962092405632,3.608924,0.223694,1.14008533832,1.58624676992,15,5,98.962092405632,3.28084,0.223694,1.14008533832,0,-0.223694,-4.250186,265.2,2.9,0.3,0,0,1024,1024,1024,1024,0,0,0,0,0,0,98.962092405632,3.28084,6,P-GPS
6600,51.5195070173289,5.86064640752521,3.608924,3.608924,95.681252405632,99.290176405632,4.265092,0.223694,1.20032484156,1.6525755122,15,5,99.290176405632,3.608924,0.223694,1.20032484156,0,-0.223694,-3.35541,265.3,3.3,0.2,0,0,1024,1024,1024,1024,0,0,0,0,0,0,99.290176405632,3.608924,6,P-GPS
6700,51.5195069262468,5.86064611842166,4.265092,4.265092,95.681252405632,99.946344405632,4.593176,0.223694,1.27384190428,1.72614178752,15,5,99.946344405632,4.265092,0.223694,1.27384190428,0,-0.223694,-2.460634,265.3,3.7,1,0,0,1024,1024,1024,1024,0,0,0,0,0,0,99.946344405632,4.265092,6,P-GPS
6800,51.5195068065594,5.86064580960615,4.593176,4.593176,95.681252405632,100.27442840563,4.92126,0.223694,1.35633534524,1.80874021536,15,5,100.27442840563,4.593176,0.223694,1.35633534524,0,-0.223694,-1.565858,265.4,3.4,1.3,0,0,1024,1024,1024,1024,0,0,0,0,0,0,100.27442840563,4.593176,6,P-GPS
6900,51.5195067851714,5.8606456666239,4.593176,4.593176,95.681252405632,100.27442840563,5.249344,0.223694,1.38851382396,1.8421260432,15,5,100.27442840563,4.593176,0.223694,1.38851382396,0,-0.223694,-0.894776,265.4,3.9,0.4,0,0,1024,959,1024,1024,0,-10,0,0,0,0,100.27442840563,4.593176,6,P-GPS
7000,51.5195067670696,5.86064542825704,4.92126,4.92126,95.681252405632,100.60251240563,5.249344,0.223694,1.4392716996,1.89664376148,15,5,100.60251240563,4.92126,0.223694,1.4392716996,0,-0.223694,-0.447388,265.3,4,0.4,0,0,1024,820,1024,1024,0,-31,0,0,0,0,100.60251240563,4.92126,6,P-GPS
7100,51.5195067372919,5.86064516735971,4.92126,4.92126,95.681252405632,100.60251240563,5.577428,0.223694,1.49678810564,1.95686029884,15,5,100.60251240563,4.92126,0.223694,1.49678810564,0,-0.223694,-0.223694,265.3,4.2,-0.4,0,0,1024,741,1024,1024,0,-43,0,0,0,0,100.60251240563,4.92126,6,P-GPS
7200,51.5195066851198,5.8606448875838,4.92126,4.92126,95.681252405632,100.60251240563,5.577428,0.223694,1.56201448568,2.02316935608,15,5,100.60251240563,4.92126,0.223694,1.56201448568,0,-0.223694,0,265.3,4.2,-1.5,0,0,1024,741,1024,1024,0,-43,0,0,0,0,100.60251240563,4.92126,6,P-GPS
7300,51.5195066111885,5.86064461831396,4.92126,4.92126,95.681252405632,100.60251240563,5.577428,0.223694,1.62874349044,2.08998694352,15,5,100.60251240563,4.92126,0.223694,1.62874349044,0,-0.223694,0,265.2,4.2,-3.8,0,0,1024,723,1024,1024,0,-46,0,0,0,0,100.60251240563,4.92126,6,P-GPS
7400,51.5195064999429,5.86064430585495,4.92126,4.9540684,95.648444005632,100.60251240563,5.577428,0.223694,1.71035766628,2.17171594876,15,5,100.60251240563,4.92126,0.223694,1.71035766628,-0.223694,0,0,265.1,4.2,-6.2,0,0,1024,721,1024,1024,0,-46,0,0,0,0,100.60251240563,4.92126,6,P-GPS
7500,51.5195063133721,5.86064411557492,4.92126,4.9540684,95.648444005632,100.60251240563,5.577428,0.447388,1.78012144804,2.25233603008,15,5,100.60251240563,4.92126,0.447388,1.78012144804,-0.447388,0,0,264.9,4.3,-8.7,0,0,1024,930,1024,1024,0,-14,0,0,0,0,100.60251240563,4.92126,6,P-GPS
7600,51.5195059985874,5.86064396523639,4.92126,4.9540684,95.648444005632,100.60251240563,5.577428,0.894776,1.86637801248,2.37214902604,15,5,100.60251240563,4.92126,0.894776,1.86637801248,-0.894776,0,0,265,4.2,-10.4,0,0,1024,1024,1024,1024,0,0,0,0,0,0,100.60251240563,4.92126,6,P-GPS
7700,51.5195054842205,5.86064383613525,4.92126,4.9540684,95.648444005632,100.60251240563,5.577428,1.342164,1.99299218976,2.562089977,15,5,100.60251240563,4.92126,1.342164,1.99299218976,-1.342164,0,0,265.1,3.6,-9.9,0,0,1024,1073,1024,1024,0,7,0,0,0,0,100.60251240563,4.92126,6,P-GPS
7800,51.519504726981,5.86064369881885,4.92126,4.9540684,95.648444005632,100.60251240563,5.577428,1.789552,2.18693904636,2.84012148196,15,5,100.60251240563,4.92126,1.789552,2.18693904636,-1.789552,0,0,265.3,3.1,-5.9,0,0,1024,1122,1024,1024,0,15,0,0,0,0,100.60251240563,4.92126,6,P-GPS
7900,51.5195038783696,5.86064363803579,4.92126,4.9868768,95.615635605632,100.60251240563,5.577428,2.013246,2.40905847604,3.15004275172,15,5,100.60251240563,4.92126,2.013246,2.40905847604,-2.013246,0,0,265.4,2.8,0.4,0,0,1024,1155,1024,1024,0,20,0,0,0,0,100.60251240563,4.92126,6,P-GPS
8000,51.5195029580479,5.86064358034639,4.92126,4.9868768,95.615635605632,100.60251240563,5.577428,2.013246,2.66861229012,3.4860893504,15,5,100.60251240563,4.92126,2.013246,2.66861229012,-2.013246,0,0,265.5,2.6,4.9,0,0,1024,1168,1024,1024,0,22,0,0,0,0,100.60251240563,4.92126,6,P-GPS
8100,51.5195021333843,5.86064347612957,4.92126,4.9868768,95.615635605632,100.60251240563,5.577428,1.565858,2.92147975228,3.787893822,15,5,100.60251240563,4.92126,2.013246,2.92147975228,-1.565858,0,0,265.9,3,6.1,0,0,1024,1169,1024,1024,0,22,0,0,0,0,100.60251240563,4.92126,6,P-GPS
8200,51.519501069802,5.86064320059165,4.92126,5.0196852,95.582827205632,100.60251240563,5.577428,1.342164,3.27718514424,4.180938454,15,5,100.60251240563,4.92126,2.013246,3.27718514424,-1.342164,0,0,266,3.1,4.9,0,0,1024,1169,1024,1024,0,22,0,0,0,0,100.60251240563,4.92126,6,P-GPS
8300,51.51950046988,5.86064295674447,4.92126,5.0196852,95.582827205632,100.60251240563,5.577428,1.1408394,3.4918636288,4.4067258628,15,5,100.60251240563,4.92126,2.013246,3.4918636288,-1.11847,-0.223694,0,266,3.6,5.3,0,0,1024,1169,1024,1024,0,22,0,0,0,0,100.60251240563,4.92126,6,P-GPS
8400,51.5194999170818,5.86064266915871,4.92126,5.0196852,95.582827205632,100.60251240563,5.577428,1.1408394,3.698162848,4.6187009352,15,5,100.60251240563,4.92126,2.013246,3.698162848,-0.894776,-0.223694,0,265.9,3.4,6,0,0,1024,1172,1024,1024,0,22,0,0,0,0,100.60251240563,4.92126,6,P-GPS
8500,51.5194995144523,5.86064235691213,4.92126,5.0196852,95.582827205632,100.60251240563,5.577428,0.7158208,3.8606300448,4.7818243,15,5,100.60251240563,4.92126,2.013246,3.8606300448,-0.671082,-0.223694,0,265.6,3.2,6.7,0,0,1024,1185,1024,1024,0,24,0,0,0,0,100.60251240563,4.92126,6,P-GPS
8600,51.5194993432801,5.86064176337768,4.92126,5.0196852,95.582827205632,100.60251240563,5.577428,0.7158208,3.9839568204,4.9303479268,15,5,100.60251240563,4.92126,2.013246,3.9839568204,-0.447388,-0.223694,0,265.5,3.2,7.2,0,0,1024,1185,1024,1024,0,24,0,0,0,0,100.60251240563,4.92126,6,P-GPS
8700,51.5194991939615,5.8606413932777,4.92126,5.0196852,95.582827205632,100.60251240563,5.577428,0.3131716,4.07480328,5.0304791636,15,5,100.60251240563,4.92126,2.013246,4.07480328,-0.223694,-0.223694,0,265.5,3.6,7,0,0,1024,1203,1024,1024,0,27,0,0,0,0,100.60251240563,4.92126,6,P-GPS
8800,51.5194991563477,5.86064097480512,4.92126,5.0196852,95.582827205632,100.60251240563,5.577428,0.223694,4.1380250668,5.126476542,15,5,100.60251240563,4.92126,2.013246,4.1380250668,0,-0.223694,0,265.5,3.7,7.1,0,0,1024,1229,1024,1024,0,31,0,0,0,0,100.60251240563,4.92126,6,P-GPS
8900,51.5194992456516,5.86064061259187,4.92126,5.0196852,95.582827205632,100.60251240563,5.577428,0.4921268,4.1570867472,5.2149279884,15,5,100.60251240563,4.92126,2.013246,4.1570867472,0.223694,-0.447388,0,265.4,4.1,6.9,0,0,1024,1245,1024,1024,0,33,0,0,0,0,100.60251240563,4.92126,6,P-GPS
9000,51.5194994365899,5.86064022663799,4.92126,5.0196852,95.582827205632,100.60251240563,5.577428,0.6263432,4.1511484268,5.3268702492,15,5,100.60251240563,4.92126,2.013246,4.1570867472,0.447388,-0.447388,0,265.4,5,6.8,0,0,1024,1249,1024,1024,0,34,0,0,0,0,100.60251240563,4.92126,6,P-GPS
9100,51.5195000028845,5.86063986067647,4.92126,5.0196852,95.582827205632,100.60251240563,5.577428,0.8052984,4.0379266384,5.54954086,15,5,100.60251240563,4.92126,2.013246,4.1570867472,0.671082,-0.447388,0,265.5,5,8,0,0,1024,1132,1024,1024,0,16,0,0,0,0,100.60251240563,4.92126,6,P-GPS
9200,51.5195003716392,5.86063947633169,4.92126,5.0196852,95.582827205632,100.60251240563,5.577428,1.006623,3.9909122012,5.7099083192,16,5,100.60251240563,4.92126,2.013246,4.1570867472,0.894776,-0.447388,0,265.5,5,9.1,0,0,1024,1025,1024,1024,0,0,0,0,0,0,100.60251240563,4.92126,6,P-GPS
9300,51.5195008746558,5.86063910839321,4.92126,5.0196852,95.582827205632,100.60251240563,5.577428,1.2079476,3.911745532,5.9115487456,16,5,100.60251240563,4.92126,2.013246,4.1570867472,1.11847,-0.447388,0,265.6,4.8,8.7,0,0,1024,1024,1024,1024,0,0,0,0,0,0,100.60251240563,4.92126,6,P-GPS
9400,51.5195015333581,5.86063872472123,4.92126,4.9868768,95.615635605632,100.60251240563,5.577428,1.6329662,3.8053806992,6.16715899,15,5,100.60251240563,4.92126,2.013246,4.1570867472,1.565858,-0.447388,0,265.6,4.8,6,0,0,1024,988,1024,1024,0,-5,0,0,0,0,100.60251240563,4.92126,6,P-GPS
9500,51.51950234318,5.8606387096462,4.92126,4.9868768,95.615635605632,100.60251240563,5.577428,1.5882274,3.6138780684,6.4626642488,15,5,100.60251240563,4.92126,2.013246,4.1570867472,1.565858,-0.223694,0,265.5,4.7,0.9,0,0,1024,914,1024,1024,0,-17,0,0,0,0,100.60251240563,4.92126,6,P-GPS
9600,51.5195030467265,5.86063845356543,4.92126,4.9868768,95.615635605632,100.60251240563,5.577428,1.5882274,3.5041995872,6.7258532336,16,5,100.60251240563,4.92126,2.013246,4.1570867472,1.565858,-0.223694,0,265.3,4.5,-3.9,0,0,1024,906,1024,1024,0,-18,0,0,0,0,100.60251240563,4.92126,6,P-GPS
9700,51.5195036327774,5.8606382372988,4.92126,4.9868768,95.615635605632,100.60251240563,5.577428,1.3645334,3.426181212,6.9452430044,16,5,100.60251240563,4.92126,2.013246,4.1570867472,1.342164,-0.223694,0,265.1,4.1,-4.7,0,0,1024,1022,1024,1024,0,-0,0,0,0,0,100.60251240563,4.92126,6,P-GPS
9800,51.5195041434314,5.86063803579634,4.92126,4.9868768,95.615635605632,100.60251240563,5.577428,0.894776,3.3709646748,7.1370737192,16,5,100.60251240563,4.92126,2.013246,4.1570867472,0.894776,0,0,265.1,3.8,-5.1,0,0,1024,1024,1024,1024,0,0,0,0,0,0,100.60251240563,4.92126,6,P-GPS
9900,51.5195044877626,5.86063806499427,4.92126,4.9868768,95.615635605632,100.60251240563,5.577428,0.671082,3.3060696596,7.2628939332,16,5,100.60251240563,4.92126,2.013246,4.1570867472,0.671082,0,0,265.1,3.4,-3.9,0,0,1024,1024,1024,1024,0,0,0,0,0,0,100.60251240563,4.92126,6,P-GPS
10000,51.5195047901875,5.86063794302739,4.92126,4.9540684,95.648444005632,100.60251240563,5.577428,0.671082,3.282316378,7.376640656,16,5,100.60251240563,4.92126,2.013246,4.1570867472,0.223694,0,0,265.2,2.8,-2.2,0,0,1096,1024,1024,1024,11,0,0,0,0,0,100.60251240563,4.92126,6,P-GPS
10100,51.5195049860925,5.86063781344975,4.92126,4.9540684,95.648444005632,100.60251240563,5.577428,0.223694,3.27943251964,7.4539372464,16,5,100.60251240563,4.92126,2.013246,4.1570867472,0.223694,0,0,265.3,3,-1.9,0,0,1217,1024,1024,1024,29,0,0,0,0,0,100.60251240563,4.92126,6,P-GPS
10200,51.5195051371731,5.86063766026733,4.92126,4.9540684,95.648444005632,100.60251240563,5.577428,0.223694,3.2895998428,7.5190947288,16,5,100.60251240563,4.92126,2.013246,4.1570867472,0.223694,0,0,265.4,2.9,-1.8,0,0,1252,1024,1024,1024,35,0,0,0,0,0,100.60251240563,4.92126,6,P-GPS
10300,51.5195049803539,5.86063767005275,4.92126,4.9540684,95.648444005632,100.60251240563,5.577428,0.223694,3.3100722844,7.5763781952,16,5,100.60251240563,4.92126,2.013246,4.1570867472,0,-0.223694,0,265.5,1.7,-1.7,0,0,1266,1024,1024,1024,37,0,0,0,0,0,100.60251240563,4.92126,6,P-GPS
10400,51.5195050153101,5.86063749824773,4.92126,4.9540684,95.648444005632,100.60251240563,5.577428,0.223694,3.3408137552,7.6173886952,16,5,100.60251240563,4.92126,2.013246,4.1570867472,0,-0.223694,0,265.4,-0.6,-1.2,0,0,1288,1024,1024,1024,40,0,0,0,0,0,100.60251240563,4.92126,6,P-GPS
10500,51.5195050314089,5.86063724393999,4.92126,4.9540684,95.648444005632,100.60251240563,5.577428,0.223694,3.3916995836,7.6754267548,16,5,100.60251240563,4.92126,2.013246,4.1570867472,0,-0.223694,0,265.2,-3.2,-0.1,0,0,1304,1024,1024,1024,42,0,0,0,0,0,100.60251240563,4.92126,6,P-GPS
10600,51.5195050301224,5.86063684387277,4.92126,4.9540684,95.648444005632,100.60251240563,5.577428,0.671082,3.4758531296,7.7662732144,16,5,100.60251240563,4.92126,2.013246,4.1570867472,0,-0.671082,0,265.2,-5.1,0.2,0,0,1091,1024,1024,1024,10,0,0,0,0,0,100.60251240563,4.92126,6,P-GPS
10700,51.5195050366915,5.86063629079351,4.92126,4.9540684,95.648444005632,100.60251240563,5.577428,0.894776,3.5916011648,7.8918637696,16,5,100.60251240563,4.92126,2.013246,4.1570867472,0,-0.894776,0,265.3,-6.6,0.7,0,0,1021,1024,1024,1024,-0,0,0,0,0,0,100.60251240563,4.92126,6,P-GPS
10800,51.5195050301094,5.86063547475692,4.92126,4.9540684,95.648444005632,100.60251240563,5.577428,1.342164,3.7656169184,8.0771328044,16,5,100.60251240563,4.92126,2.013246,4.1570867472,0,-1.342164,0,265.3,-6.8,0.9,0,0,935,1015,1024,1024,-13,-1,0,0,0,0,100.60251240563,4.92126,6,P-GPS
10900,51.5195049680005,5.86063442744686,4.92126,4.9540684,95.648444005632,100.60251240563,5.577428,1.565858,3.9969161384,8.3159779564,16,5,100.60251240563,4.92126,2.013246,4.1570867472,0,-1.565858,0,265.3,-3.6,1.5,0,0,871,996,1024,1024,-23,-4,0,0,0,0,100.60251240563,4.92126,6,P-GPS
11000,51.5195048872102,5.8606331339004,4.92126,4.9540684,95.648444005632,100.60251240563,5.577428,1.789552,4.2842192972,8.6111223228,16,5,100.60251240563,4.92126,2.013246,4.2842192972,0,-1.789552,0,265.4,1.4,1.2,0,0,816,984,1024,1024,-32,-6,0,0,0,0,100.60251240563,4.92126,6,P-GPS
11100,51.5195048527783,5.8606318296422,4.92126,4.9540684,95.648444005632,100.60251240563,5.577428,1.789552,4.5696851856,8.9074806,16,5,100.60251240563,4.92126,2.013246,4.5696851856,0,-1.789552,0,265.6,4.1,0.6,0,0,808,978,1024,1024,-33,-7,0,0,0,0,100.60251240563,4.92126,6,P-GPS
11200,51.5195048310842,5.86063015570133,4.92126,4.9540684,95.648444005632,100.60251240563,5.577428,1.565858,4.935695696,9.2875987224,16,5,100.60251240563,4.92126,2.013246,4.935695696,0,-1.565858,0,265.7,5.4,0,0,0,1024,1024,1024,1024,0,0,0,0,0,0,100.60251240563,4.92126,6,P-GPS
11300,51.5195047901256,5.86062907141199,4.92126,4.9540684,95.648444005632,100.60251240563,5.577428,1.342164,5.1764765436,9.5342194652,16,5,100.60251240563,4.92126,2.013246,5.1764765436,0,-1.342164,0,265.7,5.5,-0.5,0,0,1024,1024,1024,1024,0,0,0,0,0,0,100.60251240563,4.92126,6,P-GPS
11400,51.5195047148394,5.86062806213875,4.92126,4.9540684,95.648444005632,100.60251240563,5.577428,1.11847,5.4046589656,9.7649937508,16,5,100.60251240563,4.92126,2.013246,5.4046589656,0,-1.11847,0,265.5,6.1,0.2,0,0,1024,1024,1024,1024,0,0,0,0,0,0,100.60251240563,4.92126,6,P-GPS
11500,51.5195046296457,5.86062723866113,4.92126,4.9540684,95.648444005632,100.60251240563,5.577428,0.894776,5.5932088404,9.9544950692,16,5,100.60251240563,4.92126,2.013246,5.5932088404,0,-0.894776,0,265.5,6,1,0,0,1024,1024,1024,1024,0,0,0,0,0,0,100.60251240563,4.92126,6,P-GPS
11600,51.5195044986667,5.86062675830735,4.92126,4.9868768,95.615635605632,100.60251240563,5.577428,0.894776,5.7109909964,10.0735567528,15,5,100.60251240563,4.92126,2.013246,5.7109909964,0,-0.894776,0,265.6,6.5,0.7,0,0,1024,1024,1024,1024,0,0,0,0,0,0,100.60251240563,4.92126,6,P-GPS
11700,51.5195044734942,5.860626197513,4.92126,4.9868768,95.615635605632,100.60251240563,5.577428,0.671082,5.836286276,10.2012142372,15,5,100.60251240563,4.92126,2.013246,5.836286276,0,-0.671082,0,265.6,6.4,0.2,0,0,1010,1024,1024,1024,-2,0,0,0,0,0,100.60251240563,4.92126,6,P-GPS
11800,51.5195044595873,5.86062573275377,4.92126,4.9868768,95.615635605632,100.60251240563,5.577428,0.447388,5.9395343108,10.3068572852,15,5,100.60251240563,4.92126,2.013246,5.9395343108,0,-0.447388,0,265.6,6,0.4,0,0,895,999,1024,1024,-20,-4,0,0,0,0,100.60251240563,4.92126,6,P-GPS
11900,51.5195044361214,5.860625461846,4.92126,4.9868768,95.615635605632,100.60251240563,5.577428,0.447388,6.0012141028,10.368930778,15,5,100.60251240563,4.92126,2.013246,6.0012141028,0,-0.447388,0,265.6,5.7,0.7,0,0,809,975,1024,1024,-33,-7,0,0,0,0,100.60251240563,4.92126,6,P-GPS
12000,51.5195044769823,5.86062573280023,4.92126,4.9868768,95.615635605632,100.60251240563,5.577428,0.223694,5.9379266992,10.43225099,16,5,100.60251240563,4.92126,2.013246,6.0012141028,0,-0.223694,0,265.7,5.4,0.5,0,0,761,959,1024,1024,-40,-10,0,0,0,0,100.60251240563,4.92126,6,P-GPS
12100,51.5195044809264,5.86062556260346,4.92126,4.9868768,95.615635605632,100.60251240563,5.577428,0.223694,5.9749345744,10.4708992852,16,5,100.60251240563,4.92126,2.013246,6.0012141028,0,-0.223694,0,265.8,5.8,-0.6,0,0,730,950,1024,1024,-45,-11,0,0,0,0,100.60251240563,4.92126,6,P-GPS
12200,51.5195044805421,5.86062543553413,4.92126,4.9868768,95.615635605632,100.60251240563,5.577428,0,6.0028873312,10.4997706772,16,5,100.60251240563,4.92126,2.013246,6.0028873312,0,0,0,265.6,5.5,-0.6,0,0,723,949,1024,1024,-46,-11,0,0,0,0,100.60251240563,4.92126,6,P-GPS
12300,51.5195044856587,5.86062537448454,4.92126,4.9868768,95.615635605632,100.60251240563,5.577428,0,6.0158138408,10.5137470556,16,5,100.60251240563,4.92126,2.013246,6.0158138408,0,0,0,265.5,5.8,-0.5,0,0,727,946,1024,1024,-45,-12,0,0,0,0,100.60251240563,4.92126,6,P-GPS
12400,51.519504492573,5.86062536254447,4.92126,4.9868768,95.615635605632,100.60251240563,5.577428,0,6.0178151532,10.5174544048,15,5,100.60251240563,4.92126,2.013246,6.0178151532,0,0,0,265.5,5.9,-0.3,0,0,725,941,1024,1024,-45,-13,0,0,0,0,100.60251240563,4.92126,6,P-GPS
12500,51.5195045451132,5.86062547690274,4.92126,4.9540684,95.648444005632,100.60251240563,5.577428,0,5.9878938924,10.549705062,15,5,100.60251240563,4.92126,2.013246,6.0178151532,0,0,0,265.4,6.9,-0.9,0,0,723,944,1024,1024,-46,-12,0,0,0,0,100.60251240563,4.92126,6,P-GPS
12600,51.5195045436801,5.86062556146935,4.92126,4.9540684,95.648444005632,100.60251240563,5.577428,0,5.9694227632,10.5689307844,15,5,100.60251240563,4.92126,2.013246,6.0178151532,0,0,0,265.5,7.2,-1.8,0,0,721,946,1024,1024,-46,-12,0,0,0,0,100.60251240563,4.92126,6,P-GPS
12700,51.5195044703513,5.86062566769432,4.92126,4.9868768,95.615635605632,100.60251240563,5.577428,0.223694,5.9528217128,10.6049544076,15,5,100.60251240563,4.92126,2.013246,6.0178151532,0,0.223694,0,265.4,7.6,-1.3,0,0,722,945,1024,1024,-46,-12,0,0,0,0,100.60251240563,4.92126,6,P-GPS
12800,51.5195043441599,5.86062584756809,4.92126,4.9868768,95.615635605632,100.60251240563,5.577428,0.223694,5.9252954652,10.6664701576,15,5,100.60251240563,4.92126,2.013246,6.0178151532,0,0.223694,0,265.5,7.7,-1.1,0,0,726,946,1024,1024,-45,-12,0,0,0,0,100.60251240563,4.92126,6,P-GPS
12900,51.5195041827225,5.86062594702106,4.92126,4.9868768,95.615635605632,100.60251240563,5.577428,0.223694,5.9193243364,10.7295607108,15,5,100.60251240563,4.92126,2.013246,6.0178151532,-0.223694,0.447388,0,265.3,8.1,-1.2,0,0,728,949,1024,1024,-45,-11,0,0,0,0,100.60251240563,4.92126,6,P-GPS
13000,51.5195040612438,5.86062627200506,4.92126,4.9868768,95.615635605632,100.60251240563,5.577428,0.7158208,5.8608269592,10.815617144,15,5,100.60251240563,4.92126,2.013246,6.0178151532,-0.223694,0.671082,0,265.3,7.9,-0.6,0,0,730,949,1024,1024,-45,-11,0,0,0,0,100.60251240563,4.92126,6,P-GPS
13100,51.5195039315285,5.86062669505149,4.92126,4.9868768,95.615635605632,100.60251240563,5.577428,0.7158208,5.7825789252,10.9227037616,15,5,100.60251240563,4.92126,2.013246,6.0178151532,-0.223694,0.671082,0,265.4,7.6,-0.6,0,0,732,953,1024,1024,-44,-11,0,0,0,0,100.60251240563,4.92126,6,P-GPS
13200,51.5195038003117,5.8606272219514,4.92126,4.9868768,95.615635605632,100.60251240563,5.577428,0.9171454,5.6830382396,11.0515423484,16,5,100.60251240563,4.92126,2.013246,6.0178151532,-0.223694,0.894776,0,265.3,7.5,-0.8,0,0,736,954,1024,1024,-44,-11,0,0,0,0,100.60251240563,4.92126,6,P-GPS
13300,51.5195036886982,5.86062791320281,4.92126,4.9868768,95.615635605632,100.60251240563,5.577428,0.9171454,5.54708023,11.2136814612,16,5,100.60251240563,4.92126,2.013246,6.0178151532,-0.223694,0.894776,0,265.3,7.7,-1.2,0,0,741,955,1024,1024,-43,-10,0,0,0,0,100.60251240563,4.92126,6,P-GPS
13400,51.5195035862821,5.86062861363559,4.92126,4.9868768,95.615635605632,100.60251240563,5.577428,0.9171454,5.4094818004,11.3770344848,16,5,100.60251240563,4.92126,2.013246,6.0178151532,-0.223694,0.894776,0,265.2,7.7,-2.1,0,0,739,955,1024,1024,-43,-10,0,0,0,0,100.60251240563,4.92126,6,P-GPS
13500,51.5195034325374,5.86062935008648,4.92126,4.9868768,95.615635605632,100.60251240563,5.577428,1.1408394,5.2723754968,11.5533796348,16,5,100.60251240563,4.92126,2.013246,6.0178151532,-0.223694,1.11847,0,265.1,7.6,-1.2,0,0,730,955,1024,1024,-45,-10,0,0,0,0,100.60251240563,4.92126,6,P-GPS
13600,51.5195032359973,5.86063021053995,4.92126,4.9868768,95.615635605632,100.60251240563,5.577428,1.1408394,5.1175854656,11.761483316,16,5,100.60251240563,4.92126,2.013246,6.0178151532,-0.223694,1.342164,0,265.3,7.3,-1.3,0,0,730,955,1024,1024,-45,-10,0,0,0,0,100.60251240563,4.92126,6,P-GPS
13700,51.5195031928272,5.86063112819405,4.92126,4.9868768,95.615635605632,100.60251240563,5.577428,1.4092722,4.9321523888,11.9704072072,16,5,100.60251240563,4.92126,2.013246,6.0178151532,-0.447388,1.342164,0,265.2,7.1,-2.3,0,0,728,954,1024,1024,-45,-11,0,0,0,0,100.60251240563,4.92126,6,P-GPS
13800,51.5195030483126,5.86063211475311,4.92126,4.9868768,95.615635605632,100.60251240563,5.577428,1.6329662,4.750164194,12.2004925164,15,5,100.60251240563,4.92126,2.013246,6.0178151532,-0.447388,1.565858,0,265.1,7.5,-2.3,0,0,768,980,1024,1024,-39,-7,0,0,0,0,100.60251240563,4.92126,6,P-GPS
13900,51.5195028148491,5.86063314404464,4.92126,4.9868768,95.615635605632,100.60251240563,5.577428,1.7000744,4.5787731124,12.4492129968,15,5,100.60251240563,4.92126,2.013246,6.0178151532,-0.671082,1.565858,0,265.1,6.9,-1,0,0,827,1017,1024,1024,-30,-1,0,0,0,0,100.60251240563,4.92126,6,P-GPS
14000,51.519502515502,5.86063431779802,4.92126,4.9868768,95.615635605632,100.60251240563,5.577428,1.901399,4.3984909544,12.737205132,15,5,100.60251240563,4.92126,2.013246,6.0178151532,-0.671082,1.789552,0,265.1,6.9,0.1,0,0,968,1024,1024,1024,-8,0,0,0,0,0,100.60251240563,4.92126,6,P-GPS
14100,51.5195021966917,5.86063550818154,4.92126,4.9868768,95.615635605632,100.60251240563,5.577428,1.901399,4.2309384556,13.0314308632,15,5,100.60251240563,4.92126,2.013246,6.0178151532,-0.671082,1.789552,0,265.2,6.4,1.1,0,0,1024,1024,1024,1024,0,0,0,0,0,0,100.60251240563,4.92126,6,P-GPS
14200,51.5195017048691,5.8606368597844,4.92126,4.9868768,95.615635605632,100.60251240563,5.577428,2.125093,4.087270472,13.3868770688,15,5,100.60251240563,4.92126,2.125093,6.0178151532,-0.671082,2.013246,0,265.2,5.5,1.3,0,0,1024,1024,1024,1024,0,0,0,0,0,0,100.60251240563,4.92126,6,P-GPS
14300,51.5195014203636,5.86063822798557,4.92126,5.0196852,95.582827205632,100.60251240563,5.577428,2.0579848,3.9164043248,13.7143705176,15,5,100.60251240563,4.92126,2.125093,6.0178151532,-0.447388,2.013246,0,265.4,1.3,1.5,0,0,1024,1024,1024,1024,0,0,0,0,0,0,100.60251240563,4.92126,6,P-GPS
14400,51.5195011645611,5.8606396188936,4.92126,5.0196852,95.582827205632,100.60251240563,5.577428,2.0579848,3.7552166556,14.0436684284,15,5,100.60251240563,4.92126,2.125093,6.0178151532,-0.447388,1.789552,0,265.4,-2.4,1.4,0,0,1024,1024,1024,1024,0,0,0,0,0,0,100.60251240563,4.92126,6,P-GPS
14500,51.5195008827524,5.86064072387724,4.92126,5.0196852,95.582827205632,100.60251240563,5.577428,1.4092722,3.665354448,14.3147642376,15,5,100.60251240563,4.92126,2.125093,6.0178151532,-0.447388,1.342164,0,265.3,-4.5,2.3,0,0,1024,1024,1024,1024,0,0,0,0,0,0,100.60251240563,4.92126,6,P-GPS
14600,51.5195004448833,5.86064179233884,4.92126,5.0196852,95.582827205632,100.60251240563,5.577428,1.4092722,3.64501324,14.6052170028,15,5,100.60251240563,4.92126,2.125093,6.0178151532,-0.447388,0.894776,0,265.2,-4.5,3.2,0,0,1024,1024,1024,1024,0,0,0,0,0,0,100.60251240563,4.92126,6,P-GPS
14700,51.519500237019,5.86064238234415,4.92126,5.0196852,95.582827205632,100.60251240563,5.577428,0.7158208,3.633202216,14.7591540156,15,5,100.60251240563,4.92126,2.125093,6.0178151532,-0.223694,0.671082,0,265.2,-3.2,3.3,0,0,1024,1024,1024,1024,0,0,0,0,0,0,100.60251240563,4.92126,6,P-GPS
14800,51.5195000754317,5.86064276607142,4.92126,5.0196852,95.582827205632,100.60251240563,5.577428,0.3131716,3.637303266,14.864337746,15,5,100.60251240563,4.92126,2.125093,6.0178151532,-0.223694,0.223694,0,265.3,-0.8,2.5,0,0,1024,1024,1024,1024,0,0,0,0,0,0,100.60251240563,4.92126,6,P-GPS
14900,51.5194999692572,5.8606429233362,4.92126,5.0196852,95.582827205632,100.60251240563,5.577428,0,3.6524279384,14.9170280364,15,5,100.60251240563,4.92126,2.125093,6.0178151532,0,0,0,265.3,1.5,1.9,0,0,1024,1024,1024,1024,0,0,0,0,0,0,100.60251240563,4.92126,6,P-GPS
15000,51.5194999264486,5.86064273822682,4.593176,4.6916012,95.582827205632,100.27442840563,5.249344,0,3.6872048424,14.9618443108,16,5,100.60251240563,4.92126,2.125093,6.0178151532,0,0,0,265.2,2.5,2,0,0,1024,1024,1024,1024,0,0,0,0,0,0,100.27442840563,4.593176,6,P-GPS
15100,51.5194998425903,5.86064265703664,4.92126,5.0196852,95.582827205632,100.60251240563,5.249344,0,3.7229003816,14.9975726584,16,5,100.60251240563,4.92126,2.125093,6.0178151532,0,0,0,265.2,2.5,1.6,0,0,1024,1024,1024,1024,0,0,0,0,0,0,100.60251240563,4.92126,6,P-GPS
15200,51.5194997656528,5.86064249300556,4.92126,5.0196852,95.582827205632,100.60251240563,5.249344,0,3.7661090444,15.0442262032,16,5,100.60251240563,4.92126,2.125093,6.0178151532,0,0,0,265.2,3.1,0.9,0,0,1024,1024,1024,1024,0,0,0,0,0,0,100.60251240563,4.92126,6,P-GPS
15300,51.5194997130052,5.86064236804033,4.92126,5.0196852,95.582827205632,100.60251240563,5.249344,0,3.7971785992,15.0784781728,16,5,100.60251240563,4.92126,2.125093,6.0178151532,0,0,0,265.2,3.7,0.8,0,0,1024,1024,1024,1024,0,0,0,0,0,0,100.60251240563,4.92126,6,P-GPS
15400,51.5194997559962,5.86064215406888,4.92126,5.0196852,95.582827205632,100.60251240563,5.249344,0,3.8092520904,15.1295280432,16,5,100.60251240563,4.92126,2.125093,6.0178151532,0,0,0,265.2,4.2,1.4,0,0,1024,1024,1024,1024,0,0,0,0,0,0,100.60251240563,4.92126,6,P-GPS
15500,51.5194997626142,5.86064208257426,4.92126,5.0196852,95.582827205632,100.60251240563,5.249344,0,3.8158137704,15.1459322432,16,5,100.60251240563,4.92126,2.125093,6.0178151532,0,0,0,265.2,4.1,0.9,0,0,1024,1024,1024,1024,0,0,0,0,0,0,100.60251240563,4.92126,6,P-GPS
15600,51.5194997939519,5.86064201220843,4.92126,5.0196852,95.582827205632,100.60251240563,5.249344,0,3.8146982848,15.1655844748,16,5,100.60251240563,4.92126,2.125093,6.0178151532,0,0,0,265.2,4.1,1.2,0,0,1024,1024,1024,1024,0,0,0,0,0,0,100.60251240563,4.92126,6,P-GPS
15700,51.5194998559338,5.86064196871609,4.92126,5.0196852,95.582827205632,100.60251240563,5.249344,0,3.8009515652,15.1902563916,16,5,100.60251240563,4.92126,2.125093,6.0178151532,0,0,0,265.1,4,0.5,0,0,1024,1024,1033,1024,0,0,1,0,0,0,100.60251240563,4.92126,6,P-GPS
15800,51.519499925312,5.86064191801995,4.92126,5.0196852,95.582827205632,100.60251240563,5.249344,0.223694,3.7859581264,15.2180451064,15,5,100.60251240563,4.92126,2.125093,6.0178151532,0,-0.223694,0,265.1,4.4,0.3,0,0,1024,1024,1085,1024,0,0,9,0,0,0,100.60251240563,4.92126,6,P-GPS
15900,51.5195001059032,5.86064216735889,4.92126,5.0196852,95.582827205632,100.60251240563,5.249344,0.223694,3.6998688848,15.3049217496,15,5,100.60251240563,4.92126,2.125093,6.0178151532,0,-0.223694,0,265.1,4.8,0.6,0,0,1024,1024,1172,1024,0,0,22,0,0,0,100.60251240563,4.92126,6,P-GPS
16000,51.5195001071115,5.86064204602048,4.92126,5.0196852,95.582827205632,100.60251240563,5.249344,0,3.714567048,15.3324808056,15,5,100.60251240563,4.92126,2.125093,6.0178151532,0,0,0,265.1,4.7,0.8,0,0,1024,1024,1200,1024,0,0,27,0,0,0,100.60251240563,4.92126,6,P-GPS
16100,51.5195000856909,5.86064191473669,4.92126,5.0196852,95.582827205632,100.60251240563,5.249344,0,3.7375001196,15.3632878932,15,5,100.60251240563,4.92126,2.125093,6.0178151532,0,0,-0.223694,265.2,4.7,0.8,0,0,1024,1024,1221,1024,0,0,30,0,0,0,100.60251240563,4.92126,6,P-GPS
16200,51.5195000629969,5.86064177673699,4.92126,5.0196852,95.582827205632,100.60251240563,5.577428,0,3.761811144,15.3957025924,15,5,100.60251240563,4.92126,2.125093,6.0178151532,0,0,-0.671082,265.3,5.1,0.3,0,0,1024,1024,1224,1024,0,0,30,0,0,0,100.60251240563,4.92126,6,P-GPS
16300,51.5194997908709,5.86064186172267,4.92126,5.0196852,95.582827205632,100.60251240563,5.577428,0,3.8340552408,15.4968180812,15,5,100.60251240563,4.92126,2.125093,6.0178151532,0,0,-1.11847,265.5,4.7,0.8,0,0,1024,1024,1220,1024,0,0,30,0,0,0,100.60251240563,4.92126,6,P-GPS
16400,51.519499754511,5.86064183909252,5.249344,5.3477692,95.582827205632,100.93059640563,5.905512,0,3.8479988108,15.5110569268,15,5,100.93059640563,5.249344,2.125093,6.0178151532,0,0,-1.342164,265.7,4.1,0.3,0,0,1024,1024,1221,1024,0,0,30,0,0,0,100.93059640563,5.249344,6,P-GPS
16500,51.5194997303677,5.86064173856526,5.577428,5.6758532,95.582827205632,101.25868040563,5.905512,0,3.8678150844,15.5355319932,15,5,101.25868040563,5.577428,2.125093,6.0178151532,0,0,-1.565858,265.8,4.7,-0.4,0,0,1024,1024,1223,1024,0,0,30,0,0,0,101.25868040563,5.577428,6,P-GPS
16600,51.5194996911417,5.86064162344653,5.577428,5.6758532,95.582827205632,101.25868040563,6.233596,0,3.8940618044,15.5653220204,16,5,101.25868040563,5.577428,2.125093,6.0178151532,0,0,-1.565858,265.7,4.8,-0.2,0,0,1024,1024,1230,1024,0,0,31,0,0,0,101.25868040563,5.577428,6,P-GPS
16700,51.5194995005877,5.86064160960595,5.905512,6.0039372,95.582827205632,101.58676440563,6.56168,0,3.9541011764,15.6349086368,16,5,101.58676440563,5.905512,2.125093,6.0178151532,0,0,-1.565858,265.5,4.1,1.1,0,0,1024,1024,1236,1024,0,0,32,0,0,0,101.58676440563,5.905512,6,P-GPS
16800,51.5194994323983,5.8606416276523,6.233596,6.3320212,95.582827205632,101.91484840563,6.889764,0,3.9728347728,15.6601382964,16,5,101.91484840563,6.233596,2.125093,6.0178151532,0,0,-1.789552,265.5,3.8,1.4,0,0,1024,1024,1248,1024,0,0,34,0,0,0,101.91484840563,6.233596,6,P-GPS
16900,51.5194994124661,5.86064159202527,6.56168,6.6601052,95.582827205632,102.24293240563,6.889764,0,3.9833334608,15.6709978768,16,5,102.24293240563,6.56168,2.125093,6.0178151532,0,0,-1.789552,265.4,3.8,1.5,0,0,1024,1024,1256,1024,0,0,35,0,0,0,102.24293240563,6.56168,6,P-GPS
17000,51.519499426842,5.86064151040339,6.889764,6.9881892,95.582827205632,102.57101640563,7.217848,0,3.9889108888,15.6902564076,15,5,102.57101640563,6.889764,2.125093,6.0178151532,0,0,-2.013246,265.4,4,1.2,0,0,1024,1024,1261,1024,0,0,36,0,0,0,102.57101640563,6.889764,6,P-GPS
17100,51.5194995237572,5.8606416287911,7.217848,7.3162732,95.582827205632,102.89910040563,7.545932,0,3.9446195488,15.7346789812,15,5,102.89910040563,7.217848,2.125093,6.0178151532,0,0,-2.23694,265.3,4.3,0.6,0,0,1024,1024,1271,1024,0,0,37,0,0,0,102.89910040563,7.217848,6,P-GPS
17200,51.5194995767338,5.86064160157706,7.545932,7.6443572,95.582827205632,103.22718440563,7.874016,0.223694,3.931758656,15.7549545724,16,5,103.22718440563,7.545932,2.125093,6.0178151532,0,-0.223694,-2.23694,265.2,4.7,0.3,0,0,1024,1024,1274,1024,0,0,38,0,0,0,103.22718440563,7.545932,6,P-GPS
17300,51.5194996066125,5.8606414161213,7.874016,7.9724412,95.582827205632,103.55526840563,8.2021,0.223694,3.9457350344,15.7984585108,16,5,103.55526840563,7.874016,2.125093,6.0178151532,0,-0.223694,-2.23694,265.2,5,0.5,0,0,1024,1024,1284,1024,0,0,39,0,0,0,103.55526840563,7.874016,6,P-GPS
17400,51.5194996366898,5.86064116354012,8.2021,8.3005252,95.582827205632,103.88335240563,8.858268,0.223694,3.968668106,15.8568574628,16,5,103.88335240563,8.2021,2.125093,6.0178151532,0,-0.223694,-2.460634,265.2,5.2,0.2,0,0,1024,1024,1292,1024,0,0,41,0,0,0,103.88335240563,8.2021,6,P-GPS
17500,51.5194997201704,5.86064095917766,8.530184,8.6286092,95.582827205632,104.21143640563,9.186352,0.223694,3.9700788672,15.9123364672,16,5,104.21143640563,8.530184,2.125093,6.0178151532,0,-0.223694,-2.460634,265.2,5.4,-0.4,0,0,1024,1024,1288,1024,0,0,40,0,0,0,104.21143640563,8.530184,6,P-GPS
17600,51.519499891841,5.86064056641101,8.858268,8.9566932,95.582827205632,104.53952040563,9.514436,0.223694,3.9717192872,16.021325972,15,5,104.53952040563,8.858268,2.125093,6.0178151532,0,-0.223694,-2.684328,265.1,5.5,-0.9,0,0,1024,1024,1284,1024,0,0,39,0,0,0,104.53952040563,8.858268,6,P-GPS
17700,51.5194999166324,5.86064038683023,9.186352,9.2847772,95.582827205632,104.86760440563,9.84252,0,3.989009314,16.0630910652,15,5,104.86760440563,9.186352,2.125093,6.0178151532,0,0,-2.684328,265.1,5.7,-0.2,0,0,1024,1024,1270,1024,0,0,37,0,0,0,104.86760440563,9.186352,6,P-GPS
17800,51.5194999136165,5.86064020277021,9.84252,9.9409452,95.582827205632,105.52377240563,10.498688,0,4.0153216508,16.1048889668,16,5,105.52377240563,9.84252,2.125093,6.0178151532,0,0,-2.908022,265.1,5.6,0,0,0,1024,1024,1251,1024,0,0,34,0,0,0,105.52377240563,9.84252,6,P-GPS
17900,51.51949991986,5.86064004993284,10.170604,10.2690292,95.582827205632,105.85185640563,10.826772,0,4.0348754572,16.1396330624,16,5,105.85185640563,10.170604,2.125093,6.0178151532,0,0,-2.684328,265.1,5.8,0,0,0,1024,1024,1187,1024,0,0,25,0,0,0,105.85185640563,10.170604,6,P-GPS
18000,51.5194998675283,5.86063989471634,10.498688,10.5971132,95.582827205632,106.17994040563,11.154856,0,4.071686482,16.1797249272,16,5,106.17994040563,10.498688,2.125093,6.0178151532,0,0,-2.460634,265.2,6,0,0,0,1024,1024,1152,1024,0,0,19,0,0,0,106.17994040563,10.498688,6,P-GPS
18100,51.5194998429323,5.860639805968,11.154856,11.2532812,95.582827205632,106.83610840563,11.48294,0,4.0912402884,16.201772172,16,5,106.83610840563,11.154856,2.125093,6.0178151532,0,0,-2.013246,265.2,6.6,-0.1,0,0,1024,1024,1120,1024,0,0,15,0,0,0,106.83610840563,11.154856,6,P-GPS
18200,51.5194997984139,5.8606397291579,11.154856,11.2532812,95.582827205632,106.83610840563,11.811024,0,4.1147967196,16.2256238788,16,5,106.83610840563,11.154856,2.125093,6.0178151532,0,0,-1.342164,265.2,6.4,-0.6,0,0,1024,1024,1099,1024,0,0,11,0,0,0,106.83610840563,11.154856,6,P-GPS
18300,51.5194997849076,5.86063964617157,11.48294,11.5813652,95.582827205632,107.16419240563,12.139108,0,4.130413518,16.24507926,16,5,107.16419240563,11.48294,2.125093,6.0178151532,0,0,-1.11847,265.2,5.9,0,0,0,1024,1024,1078,1024,0,0,8,0,0,0,107.16419240563,11.48294,6,P-GPS
18400,51.5194997798919,5.8606396529496,11.811024,11.9094492,95.582827205632,107.49227640563,12.139108,0,4.130905644,16.2474742732,16,5,107.49227640563,11.811024,2.125093,6.0178151532,0,0,-0.894776,265.1,5.8,0.3,0,0,1024,1024,1068,1024,0,0,7,0,0,0,107.49227640563,11.811024,6,P-GPS
18500,51.5194997695741,5.86063949453135,11.811024,11.9094492,95.582827205632,107.49227640563,12.139108,0,4.1563977708,16.28362913,16,5,107.49227640563,11.811024,2.125093,6.0178151532,0,0,-0.447388,265.1,6,-0.2,0,0,1024,1024,1064,1024,0,0,6,0,0,0,107.49227640563,11.811024,6,P-GPS
18600,51.5194997350316,5.86063930385443,11.811024,11.9094492,95.582827205632,107.49227640563,12.467192,0,4.1935368796,16.32874068,15,5,107.49227640563,11.811024,2.125093,6.0178151532,0,0,-0.223694,265,6.2,0.1,0,0,1024,1024,1058,1024,0,0,5,0,0,0,107.49227640563,11.811024,6,P-GPS
18700,51.5194996812408,5.86063922870044,11.811024,11.9094492,95.582827205632,107.49227640563,12.467192,0,4.2195211324,16.3547249328,15,5,107.49227640563,11.811024,2.125093,6.0178151532,0,0,-0.223694,265.1,5.9,0.3,0,0,1024,1024,1039,1024,0,0,2,0,0,0,107.49227640563,11.811024,6,P-GPS
18800,51.519499609205,5.86063923846585,11.811024,11.9094492,95.582827205632,107.49227640563,12.467192,0,4.2384515792,16.3811028864,15,5,107.49227640563,11.811024,2.125093,6.0178151532,0,0,0,265.1,5.6,0.4,0,0,1024,1024,1037,1018,0,0,2,-1,0,0,107.49227640563,11.811024,6,P-GPS
18900,51.5194995520726,5.86063923770604,11.811024,11.9094492,95.582827205632,107.49227640563,12.467192,0,4.254757354,16.4019690288,15,5,107.49227640563,11.811024,2.125093,6.0178151532,0,0,0,265.1,5.2,0.4,0,0,1024,1024,1035,1022,0,0,2,-0,0,0,107.49227640563,11.811024,6,P-GPS
19000,51.5194994871661,5.86063923346257,11.811024,11.9094492,95.582827205632,107.49227640563,12.467192,0,4.273786226,16.4256566936,15,5,107.49227640563,11.811024,2.125093,6.0178151532,0,0,0,265.1,5.1,0.5,0,0,1024,1024,1048,1009,0,0,4,-2,0,0,107.49227640563,11.811024,6,P-GPS
19100,51.5194993929346,5.86063924072419,11.811024,11.9094492,95.582827205632,107.49227640563,12.467192,0,4.2996064368,16.4600727052,15,5,107.49227640563,11.811024,2.125093,6.0178151532,0,0,0,265.1,5.3,1,0,0,1024,1024,1050,1011,0,0,4,-2,0,0,107.49227640563,11.811024,6,P-GPS
19200,51.5194992855257,5.86063924999869,11.811024,11.9094492,95.582827205632,107.49227640563,12.467192,0,4.32906838,16.4993115516,16,5,107.49227640563,11.811024,2.125093,6.0178151532,0,0,0,265.2,5.2,1.4,0,0,1024,1020,1027,1024,0,-1,0,0,0,0,107.49227640563,11.811024,6,P-GPS
19300,51.5194991274591,5.86063941333504,11.811024,11.9094492,95.582827205632,107.49227640563,12.467192,0,4.3520014516,16.5678811076,16,5,107.49227640563,11.811024,2.125093,6.0178151532,0,0,0,265.1,4.9,1.4,0,0,1024,950,1025,1024,0,-11,0,0,0,0,107.49227640563,11.811024,6,P-GPS
19400,51.5194990160735,5.86063936486744,11.811024,11.9094492,95.582827205632,107.49227640563,12.467192,0,4.3910106392,16.6099742848,16,5,107.49227640563,11.811024,2.125093,6.0178151532,0,0,0,265.2,5.3,1.3,0,0,1024,895,1024,1024,0,-20,0,0,0,0,107.49227640563,11.811024,6,P-GPS
19500,51.519498939338,5.86063932936174,11.811024,11.9094492,95.582827205632,107.49227640563,12.467192,0,4.4182088028,16.639108144,16,5,107.49227640563,11.811024,2.125093,6.0178151532,0,0,0,265.2,5.6,0.6,0,0,1024,857,1024,1024,0,-25,0,0,0,0,107.49227640563,11.811024,6,P-GPS
19600,51.5194988828864,5.86063929294435,11.811024,11.9094492,95.582827205632,107.49227640563,12.467192,0,4.4396654964,16.6613194308,16,5,107.49227640563,11.811024,2.125093,6.0178151532,0,0,0,265.1,5.7,-1.2,0,0,1024,851,1024,1024,0,-26,0,0,0,0,107.49227640563,11.811024,6,P-GPS
19700,51.5194987611016,5.8606393155413,11.811024,11.9094492,95.582827205632,107.49227640563,12.467192,0,4.4722442376,16.70603728,16,5,107.49227640563,11.811024,2.125093,6.0178151532,0,0,0,265,5.7,-3.1,0,0,1024,839,1024,1024,0,-28,0,0,0,0,107.49227640563,11.811024,6,P-GPS
19800,51.5194986836462,5.86063922646705,11.811024,11.9094492,95.582827205632,107.49227640563,12.467192,0,4.5069883332,16.7407813756,16,5,107.49227640563,11.811024,2.125093,6.0178151532,0,0,0,264.9,5.7,-4.5,0,0,1024,844,1024,1024,0,-27,0,0,0,0,107.49227640563,11.811024,6,P-GPS
19900,51.5194986136492,5.86063914443952,11.811024,11.9094492,95.582827205632,107.49227640563,12.467192,0.223694,4.5385828224,16.7724086732,16,5,107.49227640563,11.811024,2.125093,6.0178151532,-0.223694,0,0,264.8,5.7,-5.6,0,0,1024,981,1024,1024,0,-7,0,0,0,0,107.49227640563,11.811024,6,P-GPS
20000,51.5194984916169,5.86063905294494,11.811024,11.9422576,95.550018805632,107.49227640563,12.467192,0.447388,4.5867455536,16.821522848,16,5,107.49227640563,11.811024,2.125093,6.0178151532,-0.447388,0,0,264.8,6,-6.7,0,0,1024,981,1024,1024,0,-7,0,0,0,0,107.49227640563,11.811024,6,P-GPS
20100,51.5194985906947,5.86063922731807,11.811024,11.9094492,95.582827205632,107.49227640563,12.467192,0.671082,4.5341864968,16.8751317736,16,5,107.49227640563,11.811024,2.125093,6.0178151532,-0.671082,0,0,264.8,6.3,-7,0,0,1024,1024,1024,1024,0,0,0,0,0,0,107.49227640563,11.811024,6,P-GPS
20200,51.5194983134228,5.86063923356152,11.811024,11.9422576,95.550018805632,107.49227640563,12.467192,0.894776,4.6153544784,16.9763128792,16,5,107.49227640563,11.811024,2.125093,6.0178151532,-0.894776,0,0,264.9,6.2,-5.5,0,0,1024,1024,1024,1024,0,0,0,0,0,0,107.49227640563,11.811024,6,P-GPS
20300,51.5194979132945,5.86063922565884,11.811024,11.9422576,95.550018805632,107.49227640563,12.467192,1.11847,4.7360237736,17.1223102592,16,5,107.49227640563,11.811024,2.125093,6.0178151532,-1.11847,0,0,265.1,5.9,-0.4,0,0,1024,1024,1030,1001,0,0,1,-3,0,0,107.49227640563,11.811024,6,P-GPS
20400,51.5194974451592,5.86063921006559,11.811024,11.9422576,95.550018805632,107.49227640563,12.467192,1.11847,4.8797901824,17.293143598,16,5,107.49227640563,11.811024,2.125093,6.0178151532,-1.11847,0,0,265.3,5.8,3,0,0,1024,1024,1049,951,0,0,4,-11,0,0,107.49227640563,11.811024,6,P-GPS
20500,51.5194969734511,5.86063922035568,11.811024,11.9422576,95.550018805632,107.49227640563,12.467192,0.894776,5.0231956988,17.4652564644,16,5,107.49227640563,11.811024,2.125093,6.0178151532,-0.894776,0,0,265.3,5.8,4.5,0,0,1024,1024,1059,918,0,0,5,-16,0,0,107.49227640563,11.811024,6,P-GPS
20600,51.5194966113177,5.86063913957219,11.811024,11.9422576,95.550018805632,107.49227640563,12.795276,0.671082,5.145013288,17.5986554188,16,5,107.49227640563,11.811024,2.125093,6.0178151532,-0.671082,0,0,264.7,6,4.8,0,0,1024,1024,1062,865,0,0,6,-24,0,0,107.49227640563,11.811024,6,P-GPS
20700,51.5194963956987,5.86063903773654,11.811024,11.9422576,95.550018805632,107.49227640563,12.795276,0.447388,5.2241471488,17.6806436104,16,5,107.49227640563,11.811024,2.125093,6.0178151532,-0.447388,0,0,263.7,6.4,4.2,0,0,1024,1024,1047,870,0,0,3,-23,0,0,107.49227640563,11.811024,6,P-GPS
20800,51.5194962663709,5.86063890898346,11.811024,11.9422576,95.550018805632,107.49227640563,12.795276,0.447388,5.2796589616,17.7361554232,16,5,107.49227640563,11.811024,2.125093,6.0178151532,-0.223694,-0.223694,0,262.1,6.7,2.9,0,0,1024,1024,1046,870,0,0,3,-23,0,0,107.49227640563,11.811024,6,P-GPS
20900,51.519496239544,5.86063872473048,11.811024,11.9422576,95.550018805632,107.49227640563,12.795276,0.223694,5.3099083064,17.7791016188,16,5,107.49227640563,11.811024,2.125093,6.0178151532,0,-0.223694,0,260.3,6.7,1.7,0,0,1024,1024,1042,872,0,0,3,-23,0,0,107.49227640563,11.811024,6,P-GPS
21000,51.5194964871,5.86063840898936,11.811024,11.9422576,95.550018805632,107.49227640563,12.795276,0.223694,5.2719161792,17.8944231448,16,5,107.49227640563,11.811024,2.125093,6.0178151532,0,-0.223694,0,258.5,6.5,0.8,0,0,1024,1024,1041,869,0,0,3,-23,0,0,107.49227640563,11.811024,6,P-GPS
21100,51.5194965483718,5.86063818671097,11.811024,11.9422576,95.550018805632,107.49227640563,12.795276,0.223694,5.280840064,17.9496068736,16,5,107.49227640563,11.811024,2.125093,6.0178151532,0,-0.223694,0,256.7,6.8,0.4,0,0,1024,1024,1033,890,0,0,1,-20,0,0,107.49227640563,11.811024,6,P-GPS
21200,51.5194966403789,5.86063794210904,11.811024,11.9422576,95.550018805632,107.49227640563,12.795276,0.223694,5.2838912452,18.0145018888,16,5,107.49227640563,11.811024,2.125093,6.0178151532,0,-0.223694,0,255,6.7,-0.3,0,0,1024,1024,1024,919,0,0,0,-16,0,0,107.49227640563,11.811024,6,P-GPS
21300,51.5194967814022,5.86063767679291,11.811024,11.9422576,95.550018805632,107.49227640563,12.795276,0.223694,5.2757875704,18.0937341748,16,5,107.49227640563,11.811024,2.125093,6.0178151532,0,-0.223694,0,253.2,6.6,-1.4,0,0,1024,1024,1024,923,0,0,0,-15,0,0,107.49227640563,11.811024,6,P-GPS
21400,51.5194971040458,5.86063721133024,11.811024,11.9422576,95.550018805632,107.49227640563,12.795276,0.223694,5.2424214276,18.2519034712,16,5,107.49227640563,11.811024,2.125093,6.0178151532,0,-0.223694,0,252,7.1,-1.8,0,0,1024,1024,1024,916,0,0,0,-16,0,0,107.49227640563,11.811024,6,P-GPS
21500,51.519497250368,5.8606369259543,11.811024,11.9422576,95.550018805632,107.49227640563,12.795276,0.223694,5.2390749708,18.3358601668,16,5,107.49227640563,11.811024,2.125093,6.0178151532,0,-0.223694,0,251.1,7.1,-1.8,0,0,1024,1024,1032,886,0,0,1,-21,0,0,107.49227640563,11.811024,6,P-GPS
