time_millisecond_,latitude,longitude,height_above_takeoff_feet_,height_above_ground_at_drone_location_feet_,ground_elevation_at_drone_location_feet_,altitude_above_seaLevel_feet_,height_sonar_feet_,speed_mph_,distance_feet_,mileage_feet_,satellites,gpslevel,max_altitude_feet_,max_ascent_feet_,max_speed_mph_,max_distance_feet_,xSpeed_mph_,ySpeed_mph_,zSpeed_mph_,compass_heading_degrees_,pitch_degrees_,roll_degrees_,isPhoto,isVideo,rc_elevator,rc_aileron,rc_throttle,rc_rudder,rc_elevator_percent_,rc_aileron_percent_,rc_throttle_percent_,rc_rudder_percent_,gimbal_heading_degrees_,gimbal_pitch_degrees_,altitude_feet_,ascent_feet_,flycStateRaw,flycState
0,51.5197584871671,5.86038646924261,0,0,95.967098215304,95.967098215304,0.328084,0,0,0,19,5,95.967098215304,0,0,0,0,0,0,218.3,2.3,0.2,0,0,1024,1024,1024,1024,0,0,0,0,216.9,0,95.967098215304,0,6,P-GPS
100,51.5197584624994,5.86038640640878,0,0,95.967098215304,95.967098215304,0.328084,0,0.0168667328232,0.0168667328232,19,5,95.967098215304,0,0,0.0168667328232,0,0,0,218.3,2.3,0.2,0,0,364,364,364,1684,-100,-100,-100,100,216.9,0,95.967098215304,0,41,Motors_Started
200,51.5197584359452,5.86038640080614,0,0,95.967098215304,95.967098215304,0.328084,0,0.0243031831924,0.0266381570204,19,5,95.967098215304,0,0,0.0243031831924,0,0,0,218.3,2.3,0.2,0,0,364,364,364,1684,-100,-100,-100,100,216.9,0,95.967098215304,0,41,Motors_Started
300,51.5197583813362,5.86038639445916,0,0,95.967098215304,95.967098215304,0.328084,0,0.04218011946,0.04661417472,19,5,95.967098215304,0,0,0.04218011946,0,0,0,218.3,2.3,0.2,0,0,364,364,364,1684,-100,-100,-100,100,216.9,0,95.967098215304,0,41,Motors_Started
400,51.5197583440839,5.86038638930483,0,0,95.967098215304,95.967098215304,0.328084,0,0.055268374472,0.06025590744,19,5,95.967098215304,0,0,0.055268374472,0,0,0,218.3,2.3,0.2,0,0,364,364,364,1684,-100,-100,-100,100,216.9,0,95.967098215304,0,41,Motors_Started
500,51.5197582543802,5.86038634344675,0,0,95.967098215304,95.967098215304,0.328084,0,0.089604989744,0.094600396728,19,5,95.967098215304,0,0,0.089604989744,0,0,0,218.3,2.3,0.2,0,0,364,364,364,1684,-100,-100,-100,100,216.9,0,95.967098215304,0,41,Motors_Started
600,51.5197582458228,5.86038636716271,0,0,95.967098215304,95.967098215304,0.328084,0,0.091052824436,0.100824150208,19,5,95.967098215304,0,0,0.091052824436,0,0,0,218.3,2.3,0.2,0,0,364,364,364,1684,-100,-100,-100,100,216.9,0,95.967098215304,0,41,Motors_Started
700,51.5197582463186,5.860386421889,0,0,95.967098215304,95.967098215304,0.328084,0,0.08852854614,0.11324967554,19,5,95.967098215304,0,0,0.091052824436,0,0,0,218.3,2.3,0.2,0,0,364,364,364,1684,-100,-100,-100,100,216.9,0,95.967098215304,0,41,Motors_Started
800,51.519758249512,5.8603864604768,0,0,95.967098215304,95.967098215304,0.328084,0,0.086731301988,0.122087274248,19,5,95.967098215304,0,0,0.091052824436,0,0,0,218.3,2.3,0.2,0,0,364,364,364,1684,-100,-100,-100,100,216.9,0,95.967098215304,0,41,Motors_Started
900,51.5197583125572,5.860386535675,0,0,95.967098215304,95.967098215304,0.328084,0,0.065467193696,0.150732616372,19,5,95.967098215304,0,0,0.091052824436,0,0,0,218.3,2.3,0.2,0,0,364,364,364,1684,-100,-100,-100,100,216.9,0,95.967098215304,0,41,Motors_Started
1000,51.5197583182372,5.86038654904444,0,0,95.967098215304,95.967098215304,0.328084,0,0.064241471872,0.15440781334,19,5,95.967098215304,0,0,0.091052824436,0,0,0,218.3,2.3,0.2,0,0,364,364,364,1684,-100,-100,-100,100,216.9,0,95.967098215304,0,41,Motors_Started
1100,51.5197583234222,5.86038655475637,0,0,95.967098215304,95.967098215304,0.328084,0,0.062817587312,0.1567011205,19,5,95.967098215304,0,0,0.091052824436,0,0,0,218.3,2.3,0.2,0,0,776,775,1024,1024,-38,-38,0,0,216.9,0,95.967098215304,0,41,Motors_Started
1200,51.5197583280152,5.86038655759943,0,0,95.967098215304,95.967098215304,0.328084,0,0.061433729,0.158497052316,19,5,95.967098215304,0,0,0.091052824436,0,0,0,218.3,2.3,0.2,0,0,776,775,1024,1024,-38,-38,0,0,216.9,0,95.967098215304,0,10,Assisted_Takeoff
1300,51.5197583314659,5.86038655930922,0,0,95.967098215304,95.967098215304,0.328084,0,0.060375330016,0.159814309576,19,5,95.967098215304,0,0,0.091052824436,0,0,0,218.3,2.3,0.2,0,0,1024,1024,1024,1024,0,0,0,0,216.9,0,95.967098215304,0,10,Assisted_Takeoff
1400,51.5197583536168,5.8603864923089,0,0,95.967098215304,95.967098215304,0.328084,0,0.049006235164,0.17703904766,19,5,95.967098215304,0,0,0.091052824436,0,0,0,218.3,2.3,0.2,0,0,1024,1024,1024,1024,0,0,0,0,216.9,0,95.967098215304,0,10,Assisted_Takeoff
1500,51.5197583539571,5.86038649557016,0,0,95.967098215304,95.967098215304,0.328084,0,0.048967849336,0.177789703852,19,5,95.967098215304,0,0,0.091052824436,0,0,0,218.3,2.3,0.2,0,0,1024,1024,1024,1024,0,0,0,0,216.9,0,95.967098215304,0,10,Assisted_Takeoff
1600,51.5197583545759,5.86038649824112,0,0,95.967098215304,95.967098215304,0.328084,0,0.048821851956,0.1784366855,19,5,95.967098215304,0,0,0.091052824436,0,0,0,218.3,2.3,0.2,0,0,1024,1024,1024,1024,0,0,0,0,216.9,0,95.967098215304,0,10,Assisted_Takeoff
1700,51.5197583553779,5.86038650247387,0,0,95.967098215304,95.967098215304,0.328084,0,0.048671589484,0.179441278708,19,5,95.967098215304,0,0,0.091052824436,0,0,0,218.3,2.3,0.2,0,0,1024,1024,1024,1024,0,0,0,0,216.9,0,95.967098215304,0,10,Assisted_Takeoff
1800,51.5197583694738,5.86038645584995,0,0,95.967098215304,95.967098215304,0.328084,0,0.04304790164,0.191209323704,19,5,95.967098215304,0,0,0.091052824436,0,0,0,218.3,2.3,0.2,0,0,1024,1024,1024,1024,0,0,0,0,216.9,0,95.967098215304,0,10,Assisted_Takeoff
1900,51.5197583719734,5.86038645999148,0,0,95.967098215304,95.967098215304,0.328084,0,0.042080710008,0.192519035032,19,5,95.967098215304,0,0,0.091052824436,0,0,0,218.3,2.3,0.2,0,0,1024,1024,1024,1024,0,0,0,0,216.9,0,95.967098215304,0,10,Assisted_Takeoff
2000,51.5197583746237,5.86038646390241,0,0,95.967098215304,95.967098215304,0.328084,0,0.04107939764,0.1938320272,19,5,95.967098215304,0,0,0.091052824436,0,0,0,218.3,2.3,0.2,0,0,1024,1024,1024,1024,0,0,0,0,216.9,0,95.967098215304,0,10,Assisted_Takeoff
2100,51.5197583774938,5.8603864686592,0,0,95.967098215304,95.967098215304,0.328084,0,0.040014436976,0.19533629234,19,5,95.967098215304,0,0,0.091052824436,0,0,0,218.3,2.4,0.2,0,0,1024,1024,1024,1024,0,0,0,0,216.9,0,95.967098215304,0,10,Assisted_Takeoff
2200,51.5197583740977,5.86038645471324,0,0,95.967098215304,95.967098215304,0.328084,0,0.041384843844,0.198736226832,19,5,95.967098215304,0,0,0.091052824436,0,0,0,218.3,2.2,0.2,0,0,1024,1024,1024,1024,0,0,0,0,216.9,0,95.967098215304,0,10,Assisted_Takeoff
2300,51.519758375061,5.86038646429049,0,0,95.967098215304,95.967098215304,0.328084,0,0.040917324144,0.200938654724,19,5,95.967098215304,0,0,0.091052824436,0,0,0,218.3,2.3,0.2,0,0,1024,1024,1024,1024,0,0,0,0,216.9,0,95.967098215304,0,10,Assisted_Takeoff
2400,51.5197583754078,5.86038644873284,0,0,95.967098215304,95.967098215304,0.328084,0,0.041040355644,0.204472775572,19,5,95.967098215304,0,0,0.091052824436,0,0,0,218.3,2.3,0.3,0,0,1024,1024,1024,1024,0,0,0,0,216.9,0,95.967098215304,0,10,Assisted_Takeoff
2500,51.5197583750862,5.86038640475234,0,0,95.967098215304,95.967098215304,0.328084,0,0.043434712676,0.214458340196,19,5,95.967098215304,0,0,0.091052824436,0,0,0,218.3,2.3,0.2,0,0,1024,1024,1024,1024,0,0,0,0,216.9,0,95.967098215304,0,10,Assisted_Takeoff
2600,51.5197582595212,5.86038624465907,0,0,95.967098215304,95.967098215304,0.328084,0,0.097457680284,0.27012468056,19,5,95.967098215304,0,0,0.097457680284,0,0,0,218.2,2.3,0.2,0,0,1024,1024,1024,1024,0,0,0,0,216.9,0,95.967098215304,0,10,Assisted_Takeoff
2700,51.5197582062092,5.86038623181798,0,0,95.967098215304,95.967098215304,0.328084,0,0.115814964336,0.289792988276,19,5,95.967098215304,0,0,0.115814964336,0,0,0,218.3,2.3,0.2,0,0,1024,1024,1024,1024,0,0,0,0,216.9,0,95.967098215304,0,10,Assisted_Takeoff
2800,51.5197581706701,5.86038622917886,0,0,95.967098215304,95.967098215304,0.328084,0,0.127688980464,0.302773303652,19,5,95.967098215304,0,0,0.127688980464,0,0,0,218.2,2.3,0.2,0,0,1024,1024,1024,1024,0,0,0,0,216.9,0,95.967098215304,0,10,Assisted_Takeoff
2900,51.519758153744,5.86038623750926,0,0,95.967098215304,95.967098215304,0.328084,0,0.1325377339,0.309231637192,19,5,95.967098215304,0,0,0.1325377339,0,0,0,218.3,2.3,0.2,0,0,1024,1024,1024,1024,0,0,0,0,216.9,0,95.967098215304,0,10,Assisted_Takeoff
3000,51.5197581209984,5.86038622646574,0,0,95.967098215304,95.967098215304,0.328084,0,0.14451936158,0.321439314748,18,5,95.967098215304,0,0,0.14451936158,0,0,0,218.2,2.3,0.2,0,0,1024,1024,1024,1024,0,0,0,0,216.9,0,95.967098215304,0,10,Assisted_Takeoff
3100,51.51975802298,5.86038618525774,0,0,95.967098215304,95.967098215304,0.328084,0,0.181214900812,0.35840552328,18,5,95.967098215304,0,0,0.181214900812,0,0,0,218.2,2.4,0.2,0,0,1024,1024,1024,1024,0,0,0,0,216.9,0,95.967098215304,0,10,Assisted_Takeoff
3200,51.5197580134601,5.86038614736091,0,0,95.967098215304,95.967098215304,0.328084,0,0.187645347212,0.3676837388,18,5,95.967098215304,0,0,0.187645347212,0,0,0,218.2,2.3,0.2,0,0,1024,1024,1024,1024,0,0,0,0,216.8,0,95.967098215304,0,10,Assisted_Takeoff
3300,51.5197580536232,5.86038609889382,0,0,95.967098215304,95.967098215304,0.328084,0,0.17913550442,0.3860072302,18,5,95.967098215304,0,0,0.187645347212,0,0,0,218.2,2.3,0.2,0,0,1024,1024,1024,1024,0,0,0,0,216.9,0,95.967098215304,0,10,Assisted_Takeoff
3400,51.5197580860406,5.86038604867908,0,0,95.967098215304,95.967098215304,0.328084,0,0.174741803492,0.40243439608,18,5,95.967098215304,0,0,0.187645347212,0,0,0,218.2,2.3,0.2,0,0,1024,1024,1024,1024,0,0,0,0,216.9,0,95.967098215304,0,10,Assisted_Takeoff
3500,51.519758260903,5.86038583911625,0,0,95.967098215304,95.967098215304,0.328084,0,0.165165359616,0.48201773196,18,5,95.967098215304,0,0,0.187645347212,0,0,0,218.2,2.3,0.2,0,0,1024,1024,1024,1024,0,0,0,0,216.8,0,95.967098215304,0,10,Assisted_Takeoff
3600,51.5197582793492,5.86038580661039,0,0,95.967098215304,95.967098215304,0.328084,0,0.168462275732,0.49200788976,18,5,95.967098215304,0,0,0.187645347212,0,0,0,218.2,2.3,0.2,0,0,1024,1024,1024,1024,0,0,0,0,216.8,0,95.967098215304,0,10,Assisted_Takeoff
3700,51.5197582911041,5.86038580304624,0,0,95.967098215304,95.967098215304,0.328084,0,0.167307091968,0.49637140696,18,5,95.967098215304,0,0,0.187645347212,0,0,0,218.2,2.3,0.2,0,0,1024,1024,1024,1024,0,0,0,0,216.8,0,95.967098215304,0,10,Assisted_Takeoff
3800,51.5197582991348,5.8603857873793,0,0,95.967098215304,95.967098215304,0.328084,0,0.169321199644,0.50098098716,18,5,95.967098215304,0,0,0.187645347212,0,0,0,218.2,2.3,0.2,0,0,1024,1024,1024,1024,0,0,0,0,216.9,0,95.967098215304,0,10,Assisted_Takeoff
3900,51.5197582956759,5.86038577452789,0,0,95.967098215304,95.967098215304,0.328084,0,0.172499677436,0.50415684028,18,5,95.967098215304,0,0,0.187645347212,0,0,0,218.2,2.3,0.2,0,0,1024,1024,1024,1024,0,0,0,0,216.8,0,95.967098215304,0,10,Assisted_Takeoff
4000,51.5197583197745,5.86038576234077,0,0,95.967098215304,95.967098215304,0.328084,0,0.171712932004,0.51337600068,18,5,95.967098215304,0,0,0.187645347212,0,0,0,218.2,2.3,0.2,0,0,1024,1024,1024,1024,0,0,0,0,216.8,0,95.967098215304,0,10,Assisted_Takeoff
4100,51.5197583702554,5.86038577167794,0,0,95.967098215304,95.967098215304,0.328084,0,0.164008863516,0.53191602752,19,5,95.967098215304,0,0,0.187645347212,0,0,0,218.2,2.3,0.2,0,0,1024,1024,1024,1024,0,0,0,0,216.8,0,95.967098215304,0,10,Assisted_Takeoff
4200,51.5197584033275,5.86038578802123,0,0,95.967098215304,95.967098215304,0.328084,0,0.157650595596,0.54454069984,19,5,95.967098215304,0,0,0.187645347212,0,0,0,218.2,2.3,0.2,0,0,1024,1024,1024,1024,0,0,0,0,216.8,0,95.967098215304,0,10,Assisted_Takeoff
4300,51.5197584793009,5.86038587656047,0,0,95.967098215304,95.967098215304,0.328084,0,0.134584649976,0.57877954608,19,5,95.967098215304,0,0,0.187645347212,0,0,0,218.2,2.3,0.2,0,0,1024,1024,1024,1024,0,0,0,0,216.8,0,95.967098215304,0,10,Assisted_Takeoff
4400,51.5197584845787,5.8603858994297,0,0,95.967098215304,95.967098215304,0.328084,0,0.129365489704,0.584317604,19,5,95.967098215304,0,0,0.187645347212,0,0,0,218.2,2.3,0.2,0,0,1024,1024,1024,1024,0,0,0,0,216.8,0,95.967098215304,0,10,Assisted_Takeoff
4500,51.5197584812054,5.8603859228247,0,0,95.967098215304,95.967098215304,0.328084,0,0.12406988586,0.58976707924,19,5,95.967098215304,0,0,0.187645347212,0,0,0,218.2,2.3,0.2,0,0,1024,1024,1024,1024,0,0,0,0,216.8,0,95.967098215304,0,10,Assisted_Takeoff
4600,51.5197584975908,5.8603859435212,0,0,95.967098215304,95.967098215304,0.328084,0,0.11941273348,0.59737206636,19,5,95.967098215304,0,0,0.187645347212,0,0,0,218.2,2.2,0.3,0,0,1024,1024,1024,1024,0,0,0,0,216.8,0,95.967098215304,0,10,Assisted_Takeoff
4700,51.5197585384338,5.86038596182468,0,0,95.967098215304,95.967098215304,0.328084,0,0.116705384312,0.61284122696,19,5,95.967098215304,0,0,0.187645347212,0,0,0,218.2,2.2,0.3,0,0,1024,1024,1024,1024,0,0,0,0,216.8,0,95.967098215304,0,10,Assisted_Takeoff
4800,51.5197585842142,5.86038591451667,0,0,95.967098215304,95.967098215304,0.328084,0,0.130819886076,0.63270015148,19,5,95.967098215304,0,0,0.187645347212,0,0,0,218.2,2.3,0.3,0,0,1024,1024,1024,1024,0,0,0,0,216.8,0,95.967098215304,0,10,Assisted_Takeoff
4900,51.5197585898535,5.86038586228064,0,0,95.967098215304,95.967098215304,0.328084,0,0.142798232916,0.64473755344,19,5,95.967098215304,0,0,0.187645347212,0,0,0,218.2,2.3,0.3,0,0,1024,1024,1024,1024,0,0,0,0,216.8,0,95.967098215304,0,10,Assisted_Takeoff
5000,51.51975858791,5.86038582688439,0,0,95.967098215304,95.967098215304,0.328084,0,0.150392393264,0.652805139,19,5,95.967098215304,0,0,0.187645347212,0,0,0,218.2,2.3,0.2,0,0,1024,1024,1024,1024,0,0,0,0,216.8,0,95.967098215304,0,10,Assisted_Takeoff
5100,51.519758579416,5.86038580925725,0,0,95.967098215304,95.967098215304,0.328084,0,0.153567262132,0.65786419428,19,5,95.967098215304,0,0,0.187645347212,0,0,0,218.2,2.3,0.2,0,0,1024,1024,1024,1024,0,0,0,0,216.8,0,95.967098215304,0,10,Assisted_Takeoff
5200,51.519758523479,5.86038577047412,0,0,95.967098215304,95.967098215304,0.328084,0,0.159190621892,0.68009188528,19,5,95.967098215304,0,0,0.187645347212,0,0,0,218.2,2.3,0.2,0,0,1024,1024,1024,1024,0,0,0,0,216.8,0,95.967098215304,0,10,Assisted_Takeoff
5300,51.5197585156339,5.86038582835927,0,0,95.967098215304,95.967098215304,0.328084,0,0.145867130652,0.69354004844,19,5,95.967098215304,0,0,0.187645347212,0,0,0,218.2,2.3,0.3,0,0,1024,1024,1024,1024,0,0,0,0,216.8,0,95.967098215304,0,10,Assisted_Takeoff
5400,51.5197585093661,5.8603858709974,0,0,95.967098215304,95.967098215304,0.328084,0,0.136058403304,0.70348755532,19,5,95.967098215304,0,0,0.187645347212,0,0,0,218.2,2.3,0.2,0,0,1024,1024,1024,1024,0,0,0,0,216.8,0,95.967098215304,0,10,Assisted_Takeoff
5500,51.519758505755,5.86038589621577,0,0,95.967098215304,95.967098215304,0.328084,0,0.130268376872,0.70936353976,19,5,95.967098215304,0,0,0.187645347212,0,0,0,218.2,2.3,0.2,0,0,1024,1024,1024,1024,0,0,0,0,216.8,0,95.967098215304,0,10,Assisted_Takeoff
5600,51.5197584629782,5.86038589406455,0,0,95.967098215304,95.967098215304,0.328084,0,0.130877956944,0.72497705732,19,5,95.967098215304,0,0,0.187645347212,0,0,0,218.2,2.3,0.2,0,0,1024,1024,1024,1024,0,0,0,0,216.8,0,95.967098215304,0,10,Assisted_Takeoff
5700,51.5197584625784,5.86038584778483,0,0,95.967098215304,95.967098215304,0.328084,0,0.141371723684,0.73548558784,19,5,95.967098215304,0,0,0.187645347212,0,0,0,218.2,2.3,0.2,0,0,1024,1024,1024,1024,0,0,0,0,216.8,0,95.967098215304,0,10,Assisted_Takeoff
5800,51.5197584628968,5.86038583821188,0,0,95.967098215304,95.967098215304,0.328084,0,0.14353346916,0.73766078476,19,5,95.967098215304,0,0,0.187645347212,0,0,0,218.2,2.3,0.2,0,0,1024,1024,1024,1024,0,0,0,0,216.8,0,95.967098215304,0,10,Assisted_Takeoff
5900,51.5197584644096,5.86038587323639,0,0,95.967098215304,95.967098215304,0.328084,0,0.135563324548,0.74563322596,19,5,95.967098215304,0,0,0.187645347212,0,0,0,218.2,2.3,0.2,0,0,1024,1024,1024,1024,0,0,0,0,216.8,0,95.967098215304,0,10,Assisted_Takeoff
6000,51.5197584717848,5.86038597213335,0,0,95.967098215304,95.967098215304,0.328084,0,0.112996066608,0.76824477524,19,5,95.967098215304,0,0,0.187645347212,0,0,0,218.2,2.3,0.2,0,0,1024,1024,1024,1024,0,0,0,0,216.8,0,95.967098215304,0,10,Assisted_Takeoff
6100,51.519758473625,5.86038599555674,0,0,95.967098215304,95.967098215304,0.328084,0,0.107652234416,0.7736056678,19,5,95.967098215304,0,0,0.187645347212,0,0,0,218.2,2.3,0.2,0,0,1024,1024,1024,1024,0,0,0,0,216.8,0,95.967098215304,0,10,Assisted_Takeoff
6200,51.5197584744131,5.86038601428014,0,0,95.967098215304,95.967098215304,0.328084,0,0.103393047928,0.77786419812,19,5,95.967098215304,0,0,0.187645347212,0,0,0,218.2,2.3,0.2,0,0,1024,1024,1024,1024,0,0,0,0,216.8,0,95.967098215304,0,10,Assisted_Takeoff
6300,51.5197584745947,5.86038602954179,0,0,95.967098215304,95.967098215304,0.328084,0,0.099928808972,0.781332046,19,5,95.967098215304,0,0,0.187645347212,0,0,0,218.2,2.4,0.2,0,0,1024,1024,1024,1024,0,0,0,0,216.8,0,95.967098215304,0,10,Assisted_Takeoff
6400,51.5197584738472,5.86038604285098,0,0,95.967098215304,95.967098215304,0.328084,0,0.096923887616,0.78436354216,19,5,95.967098215304,0,0,0.187645347212,0,0,0,218.2,2.3,0.1,0,0,1024,1024,1024,1024,0,0,0,0,216.8,0,95.967098215304,0,10,Assisted_Takeoff
6500,51.5197584563545,5.86038602112361,0,0,95.967098215304,95.967098215304,0.328084,0,0.102353677816,0.79243112772,19,5,95.967098215304,0,0,0.187645347212,0,0,0,218.2,2.3,0.1,0,0,1024,1024,1024,1024,0,0,0,0,216.8,0,95.967098215304,0,10,Assisted_Takeoff
6600,51.5197584279325,5.86038603403182,0,0,95.967098215304,95.967098215304,0.328084,0,0.1011400951,0.80320540628,19,5,95.967098215304,0,0,0.187645347212,0,0,0,218.2,2.3,0.1,0,0,1024,1024,1024,1024,0,0,0,0,216.8,0,95.967098215304,0,10,Assisted_Takeoff
6700,51.5197583704174,5.86038604748816,0,0,95.967098215304,95.967098215304,0.328084,0,0.10479659128,0.82441275604,19,5,95.967098215304,0,0,0.187645347212,0,0,0,218.2,2.3,0.1,0,0,1024,1024,1024,1024,0,0,0,0,216.8,0,95.967098215304,0,10,Assisted_Takeoff
6800,51.5197583300027,5.86038606018297,0,0,95.967098215304,95.967098215304,0.328084,0,0.10914370428,0.8394357224,19,5,95.967098215304,0,0,0.187645347212,0,0,0,218.2,2.3,0.1,0,0,1024,1024,1024,1024,0,0,0,0,216.8,0,95.967098215304,0,10,Assisted_Takeoff
6900,51.5197582396632,5.86038602318535,0,0,95.967098215304,95.967098215304,0.328084,0,0.13568077862,0.87345147152,19,5,95.967098215304,0,0,0.187645347212,0,0,0,218.2,2.3,0.1,0,0,1024,1024,1024,1024,0,0,0,0,216.8,0,95.967098215304,0,10,Assisted_Takeoff
7000,51.5197582278284,5.86038603556349,0,0,95.967098215304,95.967098215304,0.328084,0,0.136552169724,0.87860239032,19,5,95.967098215304,0,0,0.187645347212,0,0,0,218.2,2.3,0.1,0,0,1024,1024,1024,1024,0,0,0,0,216.8,0,95.967098215304,0,10,Assisted_Takeoff
7100,51.5197582243175,5.86038604883827,0,0,95.967098215304,95.967098215304,0.328084,0,0.135300529264,0.88187666864,19,5,95.967098215304,0,0,0.187645347212,0,0,0,218.2,2.3,0.2,0,0,1024,1024,1024,1024,0,0,0,0,216.8,0,95.967098215304,0,10,Assisted_Takeoff
7200,51.5197582228869,5.8603860615718,0,0,95.967098215304,95.967098215304,0.328084,0,0.133652891416,0.88481302044,19,5,95.967098215304,0,0,0.187645347212,0,0,0,218.2,2.3,0.1,0,0,1024,1024,1024,1024,0,0,0,0,216.8,0,95.967098215304,0,10,Assisted_Takeoff
7300,51.5197582869752,5.86038600893391,0,0,95.967098215304,95.967098215304,0.328084,0,0.127497051324,0.9110728638,19,5,95.967098215304,0,0,0.187645347212,0,0,0,218.2,2.3,0.2,0,0,1024,1024,1024,1024,0,0,0,0,216.8,0,95.967098215304,0,10,Assisted_Takeoff
7400,51.5197582641615,5.86038601805597,0,0,95.967098215304,95.967098215304,0.328084,0,0.130813324396,0.9196522604,19,5,95.967098215304,0,0,0.187645347212,0,0,0,218.2,2.3,0.2,0,0,1024,1024,1024,1024,0,0,0,0,216.8,0,95.967098215304,0,10,Assisted_Takeoff
7500,51.5197582120252,5.86038602810821,0,0,95.967098215304,95.967098215304,0.328084,0,0.141799217136,0.93880908516,19,5,95.967098215304,0,0,0.187645347212,0,0,0,218.2,2.3,0.2,0,0,1024,1024,1024,1024,0,0,0,0,216.8,0,95.967098215304,0,10,Assisted_Takeoff
7600,51.5197581766049,5.86038603682841,0,0,95.967098215304,95.967098215304,0.328084,0,0.149919952304,0.95188323256,19,5,95.967098215304,0,0,0.187645347212,0,0,0,218.2,2.3,0.2,0,0,1024,1024,1024,1024,0,0,0,0,216.8,0,95.967098215304,0,10,Assisted_Takeoff
7700,51.5197581254889,5.86038599907959,0,0,95.967098215304,95.967098215304,0.328084,0,0.169723758712,0.9724081676,19,5,95.967098215304,0,0,0.187645347212,0,0,0,218.1,2.3,0.1,0,0,1024,1024,1024,1024,0,0,0,0,216.8,0,95.967098215304,0,10,Assisted_Takeoff
7800,51.5197581180615,5.86038600699953,0,0,95.967098215304,95.967098215304,0.328084,0,0.170728023836,0.97565948004,19,5,95.967098215304,0,0,0.187645347212,0,0,0,218.2,2.3,0.2,0,0,1024,1024,1024,1024,0,0,0,0,216.8,0,95.967098215304,0,10,Assisted_Takeoff
7900,51.5197581194197,5.86038601510707,0,0,95.967098215304,95.967098215304,0.328084,0,0.169209651084,0.97756564808,19,5,95.967098215304,0,0,0.187645347212,0,0,0,218.2,2.3,0.2,0,0,1024,1024,1024,1024,0,0,0,0,216.8,0,95.967098215304,0,10,Assisted_Takeoff
8000,51.5197581006168,5.86038599876206,0,0,95.967098215304,95.967098215304,0.328084,0,0.176914703824,0.98536420476,19,5,95.967098215304,0,0,0.187645347212,0,0,0,218.1,2.3,0.2,0,0,1024,1024,1024,1024,0,0,0,0,216.8,0,95.967098215304,0,10,Assisted_Takeoff
8100,51.5197580559779,5.86038595422828,0,0,95.967098215304,95.967098215304,0.328084,0,0.196010176876,1.00453415288,19,5,95.967098215304,0,0,0.196010176876,0,0,0,218.2,2.3,0.2,0,0,1024,1024,1024,1024,0,0,0,0,216.8,0,95.967098215304,0,10,Assisted_Takeoff
8200,51.519758034581,5.86038576897687,0,0,95.967098215304,95.967098215304,0.328084,0,0.22921752702,1.0473097448,19,5,95.967098215304,0,0,0.22921752702,0,0,0,218.1,2.3,0.1,0,0,1024,1024,1024,1024,0,0,0,0,216.8,0,95.967098215304,0,10,Assisted_Takeoff
8300,51.5197580259266,5.86038575741533,0,0,95.967098215304,95.967098215304,0.328084,0,0.233312671508,1.05141735648,19,5,95.967098215304,0,0,0.233312671508,0,0,0,218.2,2.3,0.2,0,0,1024,1024,1024,1024,0,0,0,0,216.8,0,95.967098215304,0,10,Assisted_Takeoff
8400,51.5197579993349,5.86038575716234,0,0,95.967098215304,95.967098215304,0.328084,0,0.24044292108,1.06111880036,19,5,95.967098215304,0,0,0.24044292108,0,0,0,218.1,2.3,0.2,0,0,1024,1024,1024,1024,0,0,0,0,216.8,0,95.967098215304,0,10,Assisted_Takeoff
8500,51.5197579493629,5.86038576883919,0,0,95.967098215304,95.967098215304,0.328084,0,0.252557750864,1.07954071696,19,5,95.967098215304,0,0,0.252557750864,0,0,0,218.1,2.3,0.2,0,0,1024,1024,1024,1024,0,0,0,0,216.8,0,95.967098215304,0,10,Assisted_Takeoff
8600,51.5197578932858,5.86038582125937,0,0,95.967098215304,95.967098215304,0.328084,0,0.261896990008,1.10321197756,19,5,95.967098215304,0,0,0.261896990008,0,0,0,218.1,2.3,0.2,0,0,1024,1024,1024,1024,0,0,0,0,216.8,0,95.967098215304,0,10,Assisted_Takeoff
8700,51.5197578799212,5.86038588855827,0,0,95.967098215304,95.967098215304,0.328084,0,0.257808079116,1.11924872348,19,5,95.967098215304,0,0,0.261896990008,0,0,0,218.1,2.3,0.2,0,0,1024,1024,1024,1024,0,0,0,0,216.8,0,95.967098215304,0,10,Assisted_Takeoff
8800,51.519757827105,5.86038593852089,0,0,95.967098215304,95.967098215304,0.328084,0,0.269282488932,1.14161092892,19,5,95.967098215304,0,0,0.269282488932,0,0,0,218.1,2.3,0.2,0,0,1024,1024,1024,1024,0,0,0,0,216.8,0,95.967098215304,0,10,Assisted_Takeoff
8900,51.5197577246352,5.86038597004236,0,0,95.967098215304,95.967098215304,0.328084,0,0.300407161844,1.1796752346,19,5,95.967098215304,0,0,0.300407161844,0,0,0,218.1,2.3,0.2,0,0,1024,1024,1024,1024,0,0,0,0,216.8,0,95.967098215304,0,10,Assisted_Takeoff
9000,51.5197576180804,5.86038605448652,0,0,95.967098215304,95.967098215304,0.328084,0,0.33077100796,1.22302169268,18,5,95.967098215304,0,0,0.33077100796,0,0,0,218.1,2.3,0.2,0,0,1024,1024,1024,1024,0,0,0,0,216.8,0,95.967098215304,0,10,Assisted_Takeoff
9100,51.5197575932409,5.86038606730438,0,0,95.967098215304,95.967098215304,0.328084,0,0.33867455152,1.23253940952,18,5,95.967098215304,0,0,0.33867455152,0,0,0,218.1,2.3,0.2,0,0,1024,1024,1024,1024,0,0,0,0,216.8,0,95.967098215304,0,10,Assisted_Takeoff
9200,51.5197575858193,5.86038607521314,0,0,95.967098215304,95.967098215304,0.328084,0,0.34080709752,1.23578744112,18,5,95.967098215304,0,0,0.34080709752,0,0,0,218.1,2.3,0.2,0,0,1024,1024,1024,1024,0,0,0,0,216.8,0,95.967098215304,0,10,Assisted_Takeoff
9300,51.5197575949524,5.86038607993637,0,0,95.967098215304,95.967098215304,0.328084,0,0.33730972208,1.2392880974,18,5,95.967098215304,0,0,0.34080709752,0,0,0,218.1,2.3,0.2,0,0,1024,1024,1024,1024,0,0,0,0,216.8,0,95.967098215304,0,10,Assisted_Takeoff
9400,51.5197576412914,5.86038599746617,0,0,95.967098215304,95.967098215304,0.328084,0,0.326674223052,1.26451447616,18,5,95.967098215304,0,0,0.34080709752,0,0,0,218.1,2.3,0.2,0,0,1024,1024,1024,1024,0,0,0,0,216.8,0,95.967098215304,0,10,Assisted_Takeoff
9500,51.5197576053663,5.8603860001268,0,0,95.967098215304,95.967098215304,0.328084,0,0.3388943678,1.27763455532,18,5,95.967098215304,0,0,0.34080709752,0,0,0,218.1,2.3,0.2,0,0,1024,1024,1024,1024,0,0,0,0,216.8,0,95.967098215304,0,10,Assisted_Takeoff
9600,51.5197575849961,5.8603859770717,0,0,95.967098215304,95.967098215304,0.328084,0,0.347604998,1.28672576296,18,5,95.967098215304,0,0,0.347604998,0,0,0,218.1,2.3,0.1,0,0,1024,1024,1024,1024,0,0,0,0,216.8,0,95.967098215304,0,10,Assisted_Takeoff
9700,51.5197575775956,5.86038593176949,0,0,95.967098215304,95.967098215304,0.328084,0,0.35357940764,1.2973589654,18,5,95.967098215304,0,0,0.35357940764,0,0,0,218.1,2.3,0.1,0,0,1024,1024,1024,1024,0,0,0,0,216.8,0,95.967098215304,0,10,Assisted_Takeoff
9800,51.5197575755959,5.8603859058937,0,0,95.967098215304,95.967098215304,0.328084,0,0.35632875156,1.30327760076,18,5,95.967098215304,0,0,0.35632875156,0,0,0,218.1,2.4,0.1,0,0,1024,1024,1024,1024,0,0,0,0,216.8,0,95.967098215304,0,10,Assisted_Takeoff
9900,51.5197576652971,5.86038580756725,0,0,95.967098215304,95.967098215304,0.328084,0,0.33538058816,1.34289374376,18,5,95.967098215304,0,0,0.35632875156,0,0,0,218.1,2.4,0.1,0,0,1024,1024,1024,1024,0,0,0,0,216.8,0,95.967098215304,0,10,Assisted_Takeoff
10000,51.5197576712401,5.86038584126489,0,0,95.967098215304,95.967098215304,0.328084,0,0.3300689082,1.35084649992,18,5,95.967098215304,0,0,0.35632875156,0,0,0,218.1,2.3,0.1,0,0,1024,1024,1024,1024,0,0,0,0,216.8,0,95.967098215304,0,10,Assisted_Takeoff
10100,51.5197576761816,5.86038591492368,0,0,95.967098215304,95.967098215304,0.328084,0,0.321537411864,1.36766408576,18,5,95.967098215304,0,0,0.35632875156,0,0,0,218.1,2.3,0.1,0,0,1024,1024,1024,1024,0,0,0,0,216.8,0,95.967098215304,0,10,Assisted_Takeoff
10200,51.5197576808398,5.86038594877621,0,0,95.967098215304,95.967098215304,0.328084,0,0.317030193872,1.37553810176,19,5,95.967098215304,0,0,0.35632875156,0,0,0,218.1,2.3,0.1,0,0,1024,1024,1024,1024,0,0,0,0,216.8,0,95.967098215304,0,10,Assisted_Takeoff
10300,51.5197577236174,5.86038592122419,0,0,95.967098215304,95.967098215304,0.328084,0,0.30510007538,1.39234912592,19,5,95.967098215304,0,0,0.35632875156,0,0,0,218.1,2.3,0.1,0,0,1024,1024,1024,1024,0,0,0,0,216.8,0,95.967098215304,0,10,Assisted_Takeoff
10400,51.5197577244341,5.86038593773441,0,0,95.967098215304,95.967098215304,0.328084,0,0.303317595008,1.3961122494,19,5,95.967098215304,0,0,0.35632875156,0,0,0,218.1,2.3,0.2,0,0,1024,1024,1024,1024,0,0,0,0,216.8,0,95.967098215304,0,10,Assisted_Takeoff
10500,51.5197577235018,5.86038599377983,0,0,95.967098215304,95.967098215304,0.328084,0,0.298801190664,1.40883862776,19,5,95.967098215304,0,0,0.35632875156,0,0,0,218.1,2.3,0.1,0,0,1024,1024,1024,1024,0,0,0,0,216.8,0,95.967098215304,0,10,Assisted_Takeoff
10600,51.5197576989888,5.86038603658661,0,0,95.967098215304,95.967098215304,0.328084,0,0.303878946732,1.4220472896,19,5,95.967098215304,0,0,0.35632875156,0,0,0,218.1,2.3,0.2,0,0,1024,1024,1024,1024,0,0,0,0,216.8,0,95.967098215304,0,10,Assisted_Takeoff
10700,51.5197575943312,5.8603860553169,0,0,95.967098215304,95.967098215304,0.328084,0,0.33903544392,1.460465926,19,5,95.967098215304,0,0,0.35632875156,0,0,0,218.1,2.3,0.2,0,0,1024,1024,1024,1024,0,0,0,0,216.8,0,95.967098215304,0,10,Assisted_Takeoff
10800,51.5197575593913,5.86038604607007,0,0,95.967098215304,95.967098215304,0.328084,0,0.35186680916,1.47338587392,19,5,95.967098215304,0,0,0.35632875156,0,0,0,218.1,2.3,0.2,0,0,1024,1024,1024,1024,0,0,0,0,216.8,0,95.967098215304,0,10,Assisted_Takeoff
10900,51.5197575417813,5.86038600233998,0,0,95.967098215304,95.967098215304,0.328084,0,0.3608431874,1.48521330212,19,5,95.967098215304,0,0,0.3608431874,0,0,0,218.1,2.3,0.2,0,0,1024,1024,1024,1024,0,0,0,0,216.8,0,95.967098215304,0,10,Assisted_Takeoff
11000,51.519757532149,5.86038599554469,0,0,95.967098215304,95.967098215304,0.328084,0,0.36465552348,1.48904860408,19,5,95.967098215304,0,0,0.36465552348,0,0,0,218.1,2.3,0.2,0,0,1024,1024,1024,1024,0,0,0,0,216.8,0,95.967098215304,0,10,Assisted_Takeoff
11100,51.5197575605483,5.86038595928795,0,0,95.967098215304,95.967098215304,0.328084,0,0.3573490928,1.50228351264,19,5,95.967098215304,0,0,0.36465552348,0,0,0,218.1,2.3,0.2,0,0,1024,1024,1024,1024,0,0,0,0,216.8,0,95.967098215304,0,10,Assisted_Takeoff
11200,51.519757536304,5.86038598789408,0,0,95.967098215304,95.967098215304,0.328084,0,0.36372704576,1.51325792244,19,5,95.967098215304,0,0,0.36465552348,0,0,0,218.1,2.3,0.2,0,0,1024,1024,1024,1024,0,0,0,0,216.8,0,95.967098215304,0,10,Assisted_Takeoff
11300,51.5197574854257,5.86038600807773,0,0,95.967098215304,95.967098215304,0.328084,0,0.3801837392,1.53237537712,19,5,95.967098215304,0,0,0.3801837392,0,0,0,218.1,2.3,0.2,0,0,1024,1024,1024,1024,0,0,0,0,216.8,0,95.967098215304,0,10,Assisted_Takeoff
11400,51.5197574525759,5.86038602297453,0,0,95.967098215304,95.967098215304,0.328084,0,0.390830065,1.54482944576,19,5,95.967098215304,0,0,0.390830065,0,0,0,218.1,2.3,0.2,0,0,1024,1024,1024,1024,0,0,0,0,216.8,0,95.967098215304,0,10,Assisted_Takeoff
11500,51.5197574387806,5.86038603289942,0,0,95.967098215304,95.967098215304,0.328084,0,0.39512140372,1.5503445378,19,5,95.967098215304,0,0,0.39512140372,0,0,0,218.1,2.3,0.2,0,0,1024,1024,1024,1024,0,0,0,0,216.8,0,95.967098215304,0,10,Assisted_Takeoff
11600,51.519757419915,5.86038600811731,0,0,95.967098215304,95.967098215304,0.328084,0,0.40321195516,1.5592356142,19,5,95.967098215304,0,0,0.40321195516,0,0,0,218,2.3,0.2,0,0,1024,1024,1024,1024,0,0,0,0,216.8,0,95.967098215304,0,10,Assisted_Takeoff
11700,51.519757423829,5.86038600955175,0,0,95.967098215304,95.967098215304,0.328084,0,0.40174870052,1.56069886884,19,5,95.967098215304,0,0,0.40321195516,0,0,0,218,2.3,0.2,0,0,1024,1024,1024,1024,0,0,0,0,216.8,0,95.967098215304,0,10,Assisted_Takeoff
11800,51.5197574063582,5.86038601008009,0,0,95.967098215304,95.967098215304,0.328084,0,0.40787730964,1.56707354096,19,5,95.967098215304,0,0,0.40787730964,0,0,0,218,2.3,0.2,0,0,1024,1024,1024,1024,0,0,0,0,216.8,0,95.967098215304,0,10,Assisted_Takeoff
11900,51.5197573616151,5.86038601113763,0,0,95.967098215304,95.967098215304,0.328084,0,0.4236220608,1.5833990008,19,5,95.967098215304,0,0,0.4236220608,0,0,0,218,2.3,0.2,0,0,1024,1024,1024,1024,0,0,0,0,216.8,0,95.967098215304,0,10,Assisted_Takeoff
12000,51.5197573292775,5.86038596827749,0,0,95.967098215304,95.967098215304,0.328084,0,0.43749673316,1.59869427688,19,5,95.967098215304,0,0,0.43749673316,0,0,0,218,2.3,0.2,0,0,1024,1024,1024,1024,0,0,0,0,216.8,0,95.967098215304,0,10,Assisted_Takeoff
12100,51.5197573156466,5.86038597306698,0,0,95.967098215304,95.967098215304,0.328084,0,0.44202101152,1.60378285972,19,5,95.967098215304,0,0,0.44202101152,0,0,0,218,2.3,0.2,0,0,1024,1024,1024,1024,0,0,0,0,216.8,0,95.967098215304,0,10,Assisted_Takeoff
12200,51.5197573098664,5.86038597766113,0,0,95.967098215304,95.967098215304,0.328084,0,0.4437992268,1.60613850284,19,5,95.967098215304,0,0,0.4437992268,0,0,0,218,2.3,0.2,0,0,1024,1024,1024,1024,0,0,0,0,216.8,0,95.967098215304,0,10,Assisted_Takeoff
12300,51.5197573096572,5.86038598386526,0,0,95.967098215304,95.967098215304,0.328084,0,0.4435203554,1.6075459832,19,5,95.967098215304,0,0,0.4437992268,0,0,0,218,2.3,0.2,0,0,1024,1024,1024,1024,0,0,0,0,216.8,0,95.967098215304,0,10,Assisted_Takeoff
12400,51.5197573068823,5.86038594936909,0,0,95.967098215304,95.967098215304,0.328084,0,0.4465059198,1.61544296508,19,5,95.967098215304,0,0,0.4465059198,0,0,0,218,2.3,0.2,0,0,1024,1024,1024,1024,0,0,0,0,216.8,0,95.967098215304,0,10,Assisted_Takeoff
12500,51.5197572610644,5.86038595576683,0,0,95.967098215304,95.967098215304,0.328084,0,0.46228347936,1.63222446168,19,5,95.967098215304,0,0,0.46228347936,0,0,0,218,2.3,0.2,0,0,1024,1024,1024,1024,0,0,0,0,216.8,0,95.967098215304,0,10,Assisted_Takeoff
12600,51.5197572318973,5.86038596137808,0,0,95.967098215304,95.967098215304,0.328084,0,0.47227363716,1.64294296596,19,5,95.967098215304,0,0,0.47227363716,0,0,0,218,2.3,0.2,0,0,1024,1024,1024,1024,0,0,0,0,216.8,0,95.967098215304,0,10,Assisted_Takeoff
12700,51.5197572207995,5.86038596706678,0,0,95.967098215304,95.967098215304,0.328084,0,0.47589240368,1.64719165376,19,5,95.967098215304,0,0,0.47589240368,0,0,0,218,2.3,0.2,0,0,1024,1024,1024,1024,0,0,0,0,216.8,0,95.967098215304,0,10,Assisted_Takeoff
12800,51.5197571683001,5.86038594479473,0,0,95.967098215304,95.967098215304,0.328084,0,0.49569883476,1.66700136568,19,5,95.967098215304,0,0,0.49569883476,0,0,0,218,2.3,0.2,0,0,1024,1024,1024,1024,0,0,0,0,216.8,0,95.967098215304,0,10,Assisted_Takeoff
12900,51.519757120901,5.86038594996713,0,0,95.967098215304,95.967098215304,0.328084,0,0.51223098752,1.6843340434,19,5,95.967098215304,0,0,0.51223098752,0,0,0,218,2.3,0.2,0,0,1024,1024,1024,1024,0,0,0,0,216.8,0,95.967098215304,0,10,Assisted_Takeoff
13000,51.5197570925498,5.8603859547635,0,0,95.967098215304,95.967098215304,0.328084,0,0.52206038416,1.69473758704,19,5,95.967098215304,0,0,0.52206038416,0,0,0,218,2.2,0.2,0,0,1024,1024,1024,1024,0,0,0,0,216.8,0,95.967098215304,0,10,Assisted_Takeoff
13100,51.5197570841649,5.86038595940756,0,0,95.967098215304,95.967098215304,0.328084,0,0.52480644724,1.69797249528,19,5,95.967098215304,0,0,0.52480644724,0,0,0,218,2.2,0.2,0,0,1024,1024,1024,1024,0,0,0,0,216.8,0,95.967098215304,0,10,Assisted_Takeoff
13200,51.5197570832644,5.86038594011968,0,0,95.967098215304,95.967098215304,0.328084,0,0.52610894072,1.7023622592,19,5,95.967098215304,0,0,0.52610894072,0,0,0,218,2.3,0.3,0,0,1024,1024,1024,1024,0,0,0,0,216.8,0,95.967098215304,0,10,Assisted_Takeoff
13300,51.519757172026,5.86038576470798,0,0,95.967098215304,95.967098215304,0.328084,0,0.50578413692,1.753691001,19,5,95.967098215304,0,0,0.52610894072,0,0,0,218,2.3,0.3,0,0,1024,1024,1024,1024,0,0,0,0,216.8,0,95.967098215304,0,10,Assisted_Takeoff
13400,51.5197571596197,5.86038572811565,0,0,95.967098215304,95.967098215304,0.328084,0,0.5127460794,1.76315294356,19,5,95.967098215304,0,0,0.52610894072,0,0,0,218,2.3,0.2,0,0,1024,1024,1024,1024,0,0,0,0,216.8,0,95.967098215304,0,10,Assisted_Takeoff
13500,51.5197571202382,5.86038571095318,0,0,95.967098215304,95.967098215304,0.328084,0,0.52759844208,1.77803811464,19,5,95.967098215304,0,0,0.52759844208,0,0,0,218,2.3,0.2,0,0,1024,1024,1024,1024,0,0,0,0,216.8,0,95.967098215304,0,10,Assisted_Takeoff
13600,51.5197570957684,5.86038570418973,0,0,95.967098215304,95.967098215304,0.328084,0,0.53654201192,1.78709979472,19,5,95.967098215304,0,0,0.53654201192,0,0,0,218,2.3,0.2,0,0,1024,1024,1024,1024,0,0,0,0,216.8,0,95.967098215304,0,10,Assisted_Takeoff
13700,51.5197570489189,5.86038573961609,0,0,95.967098215304,95.967098215304,0.328084,0,0.55026576564,1.80599087144,19,5,95.967098215304,0,0,0.55026576564,0,0,0,218,2.3,0.2,0,0,1024,1024,1024,1024,0,0,0,0,216.8,0,95.967098215304,0,10,Assisted_Takeoff
13800,51.5197570222401,5.86038574878719,0,0,95.967098215304,95.967098215304,0.328084,0,0.55894358744,1.81594165916,19,5,95.967098215304,0,0,0.55894358744,0,0,0,218,2.3,0.2,0,0,1024,1024,1024,1024,0,0,0,0,216.8,0,95.967098215304,0,10,Assisted_Takeoff
13900,51.5197569739542,5.86038576181931,0,0,95.967098215304,95.967098215304,0.328084,0,0.57498033336,1.83380583296,19,5,95.967098215304,0,0,0.57498033336,0,0,0,218,2.3,0.2,0,0,1024,1024,1024,1024,0,0,0,0,216.8,0,95.967098215304,0,10,Assisted_Takeoff
14000,51.5197569202441,5.86038577545033,0,0,95.967098215304,95.967098215304,0.328084,0,0.59299214496,1.85364507244,19,5,95.967098215304,0,0,0.59299214496,0,0,0,218,2.3,0.2,0,0,1024,1024,1024,1024,0,0,0,0,216.8,0,95.967098215304,0,10,Assisted_Takeoff
14100,51.5197567668341,5.86038582648168,0,0,95.967098215304,95.967098215304,0.328084,0,0.64440290776,1.91080386692,19,5,95.967098215304,0,0,0.64440290776,0,0,0,218,2.3,0.2,0,0,1024,1024,1024,1024,0,0,0,0,216.8,0,95.967098215304,0,10,Assisted_Takeoff
14200,51.519756705971,5.86038583707001,0,0,95.967098215304,95.967098215304,0.328084,0,0.66552823652,1.93313982564,19,5,95.967098215304,0,0,0.66552823652,0,0,0,218,2.3,0.2,0,0,1024,1024,1024,1024,0,0,0,0,216.8,0,95.967098215304,0,10,Assisted_Takeoff
14300,51.5197566421734,5.86038584658272,0,0,95.967098215304,95.967098215304,0.328084,0,0.687828106,1.95651581064,19,5,95.967098215304,0,0,0.687828106,0,0,0,218,2.3,0.2,0,0,1024,1024,1024,1024,0,0,0,0,216.8,0,95.967098215304,0,10,Assisted_Takeoff
14400,51.5197565831692,5.86038585566175,0,0,95.967098215304,95.967098215304,0.328084,0,0.70850067884,1.97814310792,19,5,95.967098215304,0,0,0.70850067884,0,0,0,218,2.3,0.2,0,0,1024,1024,1024,1024,0,0,0,0,216.8,0,95.967098215304,0,10,Assisted_Takeoff
14500,51.5197564823457,5.86038585425657,0,0.032808399999993,95.934289815304,95.967098215304,0.328084,0,0.74466209732,2.014927886,19,5,95.967098215304,0,0,0.74466209732,0,0,0,218,2.3,0.2,0,0,1024,1024,1024,1024,0,0,0,0,216.8,0,95.967098215304,0,10,Assisted_Takeoff
14600,51.5197564267474,5.86038583826781,0,0.032808399999993,95.934289815304,95.967098215304,0.328084,0,0.76526905336,2.03553484204,19,5,95.967098215304,0,0,0.76526905336,0,0,0,218,2.3,0.2,0,0,1024,1024,1024,1024,0,0,0,0,216.8,0,95.967098215304,0,10,Assisted_Takeoff
14700,51.5197563698821,5.86038579099852,0,0.032808399999993,95.934289815304,95.967098215304,0.328084,0,0.78768703308,2.05889442284,19,5,95.967098215304,0,0,0.78768703308,0,0,0,218,2.3,0.2,0,0,1024,1024,1024,1024,0,0,0,0,216.8,0,95.967098215304,0,10,Assisted_Takeoff
14800,51.5197563156093,5.86038578154862,0,0.032808399999993,95.934289815304,95.967098215304,0.328084,0,0.80752627256,2.07881240248,18,5,95.967098215304,0,0,0.80752627256,0,0,0,218,2.3,0.3,0,0,1024,1024,1024,1024,0,0,0,0,216.8,0,95.967098215304,0,10,Assisted_Takeoff
14900,51.519756259358,5.86038582080675,0,0.032808399999993,95.934289815304,95.967098215304,0.328084,0,0.82603677184,2.10118773128,18,5,95.967098215304,0,0,0.82603677184,0,0,0,218,2.3,0.3,0,0,1024,1024,1024,1024,0,0,0,0,216.8,0,95.967098215304,0,10,Assisted_Takeoff
15000,51.5197562317323,5.8603858238744,0,0.032808399999993,95.934289815304,95.967098215304,0.328084,0,0.83583664092,2.11128943764,18,5,95.967098215304,0,0,0.83583664092,0,0,0,218,2.3,0.3,0,0,1024,1024,1024,1024,0,0,0,0,216.8,0,95.967098215304,0,10,Assisted_Takeoff
15100,51.5197562338525,5.86038584265286,0,0.032808399999993,95.934289815304,95.967098215304,0.328084,0,0.83433729704,2.11562342728,18,5,95.967098215304,0,0,0.83583664092,0,0,0,218,2.3,0.3,0,0,1024,1024,1024,1024,0,0,0,0,216.8,0,95.967098215304,0,10,Assisted_Takeoff
15200,51.5197562442135,5.86038583495406,0,0.032808399999993,95.934289815304,95.967098215304,0.328084,0,0.83091210008,2.11978681324,18,5,95.967098215304,0,0,0.83583664092,0,0,0,218,2.3,0.2,0,0,1024,1024,1024,1024,0,0,0,0,216.8,0,95.967098215304,0,10,Assisted_Takeoff
15300,51.5197562629145,5.86038578893421,0,0.032808399999993,95.934289815304,95.967098215304,0.328084,0,0.8260827036,2.1322671286,18,5,95.967098215304,0,0,0.83583664092,0,0,0,218,2.3,0.2,0,0,1024,1024,1024,1024,0,0,0,0,216.8,0,95.967098215304,0,10,Assisted_Takeoff
15400,51.5197564256238,5.8603857157332,0,0.032808399999993,95.934289815304,95.967098215304,0.328084,0,0.77136157324,2.19391083136,18,5,95.967098215304,0,0,0.83583664092,0,0,0,217.9,2.3,0.2,0,0,1024,1024,1024,1024,0,0,0,0,216.8,0,95.967098215304,0,10,Assisted_Takeoff
15500,51.5197563920957,5.86038575429347,0,0.032808399999993,95.934289815304,95.967098215304,0.328084,0,0.78142719036,2.20895348276,18,5,95.967098215304,0,0,0.83583664092,0,0,0,217.9,2.3,0.2,0,0,1024,1024,1024,1024,0,0,0,0,216.8,0,95.967098215304,0,10,Assisted_Takeoff
15600,51.5197563703511,5.86038576441971,0,0.032808399999993,95.934289815304,95.967098215304,0.328084,0,0.78872049768,2.21721463788,19,5,95.967098215304,0,0,0.83583664092,0,0,0,217.9,2.3,0.2,0,0,1024,1024,1024,1024,0,0,0,0,216.8,0,95.967098215304,0,10,Assisted_Takeoff
15700,51.5197563640792,5.86038573307035,0,0.032808399999993,95.934289815304,95.967098215304,0.328084,0,0.79243112772,2.22469167224,19,5,95.967098215304,0,0,0.83583664092,0,0,0,217.9,2.3,0.2,0,0,1024,1024,1024,1024,0,0,0,0,216.8,0,95.967098215304,0,10,Assisted_Takeoff
15800,51.5197563888429,5.86038569949145,0,0.032808399999993,95.934289815304,95.967098215304,0.328084,0,0.78526249232,2.23651253876,19,5,95.967098215304,0,0,0.83583664092,0,0,0,217.9,2.3,0.2,0,0,1024,1024,1024,1024,0,0,0,0,216.8,0,95.967098215304,0,10,Assisted_Takeoff
15900,51.5197563945889,5.86038569407037,0,0.032808399999993,95.934289815304,95.967098215304,0.328084,0,0.7834974004,2.2389436412,19,5,95.967098215304,0,0,0.83583664092,0,0,0,217.9,2.3,0.2,0,0,1024,1024,1024,1024,0,0,0,0,216.8,0,95.967098215304,0,10,Assisted_Takeoff
16000,51.5197563799541,5.86038569625945,0,0.032808399999993,95.934289815304,95.967098215304,0.328084,0,0.78858926408,2.24430453376,20,5,95.967098215304,0,0,0.83583664092,0,0,0,217.9,2.3,0.2,0,0,1024,1024,1024,1024,0,0,0,0,216.8,0,95.967098215304,0,10,Assisted_Takeoff
16100,51.5197563340995,5.86038570836827,0,0.032808399999993,95.934289815304,95.967098215304,0.328084,0,0.8043143302,2.26125991488,20,5,95.967098215304,0,0,0.83583664092,0,0,0,217.9,2.3,0.2,0,0,1024,1024,1024,1024,0,0,0,0,216.7,0,95.967098215304,0,10,Assisted_Takeoff
16200,51.5197563603736,5.86038574224489,0,0.032808399999993,95.934289815304,95.967098215304,0.328084,0,0.79331695452,2.27354994152,20,5,95.967098215304,0,0,0.83583664092,0,0,0,217.9,2.3,0.2,0,0,1024,1024,1024,1024,0,0,0,0,216.8,0,95.967098215304,0,10,Assisted_Takeoff
16300,51.5197564001256,5.86038575855633,0,0.032808399999993,95.934289815304,95.967098215304,0.328084,0,0.7783628858,2.2885171336,20,5,95.967098215304,0,0,0.83583664092,0,0,0,217.9,2.3,0.2,0,0,1024,1024,1024,1024,0,0,0,0,216.8,0,95.967098215304,0,10,Assisted_Takeoff
16400,51.5197564105419,5.86038577365535,0,0.032808399999993,95.934289815304,95.967098215304,0.328084,0,0.77393703264,2.293635244,20,5,95.967098215304,0,0,0.83583664092,0,0,0,217.9,2.3,0.2,0,0,1024,1024,1024,1024,0,0,0,0,216.8,0,95.967098215304,0,10,Assisted_Takeoff
16500,51.5197563771873,5.8603857887733,0,0.032808399999993,95.934289815304,95.967098215304,0.328084,0,0.78517390964,2.30627960136,20,5,95.967098215304,0,0,0.83583664092,0,0,0,217.9,2.3,0.2,0,0,1024,1024,1024,1024,0,0,0,0,216.7,0,95.967098215304,0,10,Assisted_Takeoff
16600,51.5197563534186,5.86038580228643,0,0.032808399999993,95.934289815304,95.967098215304,0.328084,0,0.79308401488,2.31547907672,20,5,95.967098215304,0,0,0.83583664092,0,0,0,217.9,2.3,0.2,0,0,1024,1024,1024,1024,0,0,0,0,216.7,0,95.967098215304,0,10,Assisted_Takeoff
16700,51.5197562930937,5.86038578107449,0,0.032808399999993,95.934289815304,95.967098215304,0.328084,0,0.81561026232,2.338008605,20,5,95.967098215304,0,0,0.83583664092,0,0,0,217.9,2.3,0.2,0,0,1024,1024,1024,1024,0,0,0,0,216.7,0,95.967098215304,0,10,Assisted_Takeoff
16800,51.5197562885975,5.86038578915535,0,0.032808399999993,95.934289815304,95.967098215304,0.328084,0,0.81687010488,2.340469235,20,5,95.967098215304,0,0,0.83583664092,0,0,0,217.9,2.2,0.2,0,0,1024,1024,1024,1024,0,0,0,0,216.7,0,95.967098215304,0,10,Assisted_Takeoff
16900,51.5197562901649,5.86038579597818,0,0.032808399999993,95.934289815304,95.967098215304,0.328084,0,0.81601708648,2.34212277836,20,5,95.967098215304,0,0,0.83583664092,0,0,0,217.9,2.2,0.2,0,0,1024,1024,1024,1024,0,0,0,0,216.7,0,95.967098215304,0,10,Assisted_Takeoff
17000,51.5197562719443,5.86038578100823,0,0.032808399999993,95.934289815304,95.967098215304,0.328084,0,0.82318572188,2.34958668936,20,5,95.967098215304,0,0,0.83583664092,0,0,0,217.9,2.3,0.2,0,0,1024,1024,1024,1024,0,0,0,0,216.7,0,95.967098215304,0,10,Assisted_Takeoff
17100,51.5197561774318,5.86038560697933,0,0.032808399999993,95.934289815304,95.967098215304,0.328084,0,0.86514438464,2.40202763592,20,5,95.967098215304,0,0,0.86514438464,0,0,0,217.9,2.3,0.2,0,0,1024,1024,1024,1024,0,0,0,0,216.7,0,95.967098215304,0,10,Assisted_Takeoff
17200,51.5197561256139,5.86038557315778,0,0.032808399999993,95.934289815304,95.967098215304,0.328084,0,0.8853018656,2.42243446072,20,5,95.967098215304,0,0,0.8853018656,0,0,0,217.9,2.3,0.2,0,0,1024,1024,1024,1024,0,0,0,0,216.7,0,95.967098215304,0,10,Assisted_Takeoff
17300,51.5197560638421,5.86038556166938,0,0.032808399999993,95.934289815304,95.967098215304,0.328084,0,0.90783795556,2.44512146932,20,5,95.967098215304,0,0,0.90783795556,0,0,0,217.9,2.3,0.2,0,0,1024,1024,1024,1024,0,0,0,0,216.7,0,95.967098215304,0,10,Assisted_Takeoff
17400,51.5197560247864,5.86038556088548,0,0.032808399999993,95.934289815304,95.967098215304,0.328084,0,0.92176184052,2.45937343828,20,5,95.967098215304,0,0,0.92176184052,0,0,0,217.9,2.3,0.2,0,0,1024,1024,1024,1024,0,0,0,0,216.7,0,95.967098215304,0,10,Assisted_Takeoff
17500,51.5197559791801,5.860385576814,0,0.032808399999993,95.934289815304,95.967098215304,0.328084,0,0.93719819272,2.47640099788,20,5,95.967098215304,0,0,0.93719819272,0,0,0,217.9,2.3,0.2,0,0,1024,1024,1024,1024,0,0,0,0,216.7,0,95.967098215304,0,10,Assisted_Takeoff
17600,51.5197559736426,5.8603855869566,0,0.032808399999993,95.934289815304,95.967098215304,0.328084,0,0.93867785156,2.4794620216,20,5,95.967098215304,0,0,0.93867785156,0,0,0,217.9,2.3,0.2,0,0,1024,1024,1024,1024,0,0,0,0,216.7,0,95.967098215304,0,10,Assisted_Takeoff
17700,51.5197559803722,5.86038560088621,0,0.032808399999993,95.934289815304,95.967098215304,0.328084,0,0.93560698532,2.48346792724,20,5,95.967098215304,0,0,0.93867785156,0,0,0,217.9,2.3,0.2,0,0,1024,1024,1024,1024,0,0,0,0,216.7,0,95.967098215304,0,10,Assisted_Takeoff
17800,51.5197559879477,5.86038561533985,0,0.032808399999993,95.934289815304,95.967098215304,0.328084,0,0.9322178776,2.48775598512,20,5,95.967098215304,0,0,0.93867785156,0,0,0,217.9,2.3,0.2,0,0,1024,1024,1024,1024,0,0,0,0,216.7,0,95.967098215304,0,10,Assisted_Takeoff
17900,51.5197560956676,5.86038566345414,0,0.032808399999993,95.934289815304,95.967098215304,0.328084,0,0.89150921488,2.52854994968,20,5,95.967098215304,0,0,0.93867785156,0,0,0,217.9,2.3,0.2,0,0,1024,1024,1024,1024,0,0,0,0,216.7,0,95.967098215304,0,10,Assisted_Takeoff
18000,51.519756081168,5.86038567839138,0,0.032808399999993,95.934289815304,95.967098215304,0.328084,0,0.89600068484,2.53483275828,20,5,95.967098215304,0,0,0.93867785156,0,0,0,217.9,2.3,0.2,0,0,1024,1024,1024,1024,0,0,0,0,216.7,0,95.967098215304,0,10,Assisted_Takeoff
18100,51.5197560356709,5.86038569140973,0,0.032808399999993,95.934289815304,95.967098215304,0.328084,0,0.91169294256,2.55169299504,20,5,95.967098215304,0,0,0.93867785156,0,0,0,217.9,2.3,0.2,0,0,1024,1024,1024,1024,0,0,0,0,216.7,0,95.967098215304,0,10,Assisted_Takeoff
18200,51.5197560051432,5.86038570179068,0,0.032808399999993,95.934289815304,95.967098215304,0.328084,0,0.92217522636,2.56307750984,20,5,95.967098215304,0,0,0.93867785156,0,0,0,217.9,2.3,0.2,0,0,1024,1024,1024,1024,0,0,0,0,216.7,0,95.967098215304,0,10,Assisted_Takeoff
18300,51.5197559910344,5.86038571092478,0,0.032808399999993,95.934289815304,95.967098215304,0.328084,0,0.92684058084,2.56862869112,20,5,95.967098215304,0,0,0.93867785156,0,0,0,217.8,2.3,0.2,0,0,1024,1024,1024,1024,0,0,0,0,216.7,0,95.967098215304,0,10,Assisted_Takeoff
18400,51.5197559196214,5.86038569472262,0,0.032808399999993,95.934289815304,95.967098215304,0.328084,0,0.95312667092,2.59494102792,20,5,95.967098215304,0,0,0.95312667092,0,0,0,217.9,2.3,0.2,0,0,1024,1024,1024,1024,0,0,0,0,216.7,0,95.967098215304,0,10,Assisted_Takeoff
18500,51.519755871093,5.86038570162375,0,0.032808399999993,95.934289815304,95.967098215304,0.328084,0,0.97025265572,2.61271661904,20,5,95.967098215304,0,0,0.97025265572,0,0,0,217.9,2.3,0.2,0,0,1024,1024,1024,1024,0,0,0,0,216.7,0,95.967098215304,0,10,Assisted_Takeoff
18600,51.5197558407518,5.86038568467468,0,0.032808399999993,95.934289815304,95.967098215304,0.328084,0,0.98183402092,2.62443577952,20,5,95.967098215304,0,0,0.98183402092,0,0,0,217.8,2.3,0.2,0,0,1024,1024,1024,1024,0,0,0,0,216.7,0,95.967098215304,0,10,Assisted_Takeoff
18700,51.5197558315772,5.86038564071398,0,0.032808399999993,95.934289815304,95.967098215304,0.328084,0,0.98697837804,2.63496071424,20,5,95.967098215304,0,0,0.98697837804,0,0,0,217.8,2.3,0.2,0,0,1024,1024,1024,1024,0,0,0,0,216.7,0,95.967098215304,0,10,Assisted_Takeoff
18800,51.5197558013272,5.86038548022316,0,0.032808399999993,95.934289815304,95.967098215304,0.328084,0,1.00532155448,2.6730315816,20,5,95.967098215304,0,0,1.00532155448,0,0,0,217.8,2.3,0.2,0,0,1024,1024,1024,1024,0,0,0,0,216.7,0,95.967098215304,0,10,Assisted_Takeoff
18900,51.5197557588484,5.86038546937927,0,0.032808399999993,95.934289815304,95.967098215304,0.328084,0,1.02097772296,2.68872383932,20,5,95.967098215304,0,0,1.02097772296,0,0,0,217.8,2.3,0.2,0,0,1024,1024,1024,1024,0,0,0,0,216.7,0,95.967098215304,0,10,Assisted_Takeoff
19000,51.5197557337614,5.86038549106017,0,0.032808399999993,95.934289815304,95.967098215304,0.328084,0,1.02883205392,2.69911754044,20,5,95.967098215304,0,0,1.02883205392,0,0,0,217.8,2.3,0.2,0,0,1024,1024,1024,1024,0,0,0,0,216.7,0,95.967098215304,0,10,Assisted_Takeoff
19100,51.5197557268446,5.86038555075751,0,0.032808399999993,95.934289815304,95.967098215304,0.328084,0,1.028461319,2.71290363012,20,5,95.967098215304,0,0,1.02883205392,0,0,0,217.8,2.3,0.3,0,0,1024,1024,1024,1024,0,0,0,0,216.7,0,95.967098215304,0,10,Assisted_Takeoff
19200,51.5197556668088,5.86038556997913,0,0.032808399999993,95.934289815304,95.967098215304,0.328084,0,1.04906171336,2.735236308,20,5,95.967098215304,0,0,1.04906171336,0,0,0,217.8,2.3,0.2,0,0,1024,1024,1024,1024,0,0,0,0,216.7,0,95.967098215304,0,10,Assisted_Takeoff
19300,51.5197556228628,5.86038554175335,0,0.032808399999993,95.934289815304,95.967098215304,0.328084,0,1.0660433412,2.75250336892,20,5,95.967098215304,0,0,1.0660433412,0,0,0,217.8,2.3,0.2,0,0,1024,1024,1024,1024,0,0,0,0,216.7,0,95.967098215304,0,10,Assisted_Takeoff
19400,51.5197555964445,5.86038552226067,0,0.032808399999993,95.934289815304,95.967098215304,0.328084,0,1.07636814468,2.76311032464,20,5,95.967098215304,0,0,1.07636814468,0,0,0,217.8,2.3,0.2,0,0,1024,1024,1024,1024,0,0,0,0,216.7,0,95.967098215304,0,10,Assisted_Takeoff
19500,51.5197555882828,5.86038551329523,0,0.032808399999993,95.934289815304,95.967098215304,0.328084,0,1.0796916356,2.7667159678,20,5,95.967098215304,0,0,1.0796916356,0,0,0,217.8,2.3,0.2,0,0,1024,1024,1024,1024,0,0,0,0,216.7,0,95.967098215304,0,10,Assisted_Takeoff
19600,51.5197555610902,5.86038550213984,0,0.032808399999993,95.934289815304,95.967098215304,0.328084,0,1.08992129472,2.77695546944,20,5,95.967098215304,0,0,1.08992129472,0,0,0,217.8,2.3,0.2,0,0,1024,1024,1024,1024,0,0,0,0,216.7,0,95.967098215304,0,10,Assisted_Takeoff
19700,51.5197555163813,5.86038550424029,0,0.032808399999993,95.934289815304,95.967098215304,0.328084,0,1.105807122,2.7932743676,20,5,95.967098215304,0,0,1.105807122,0,0,0,217.8,2.3,0.2,0,0,1024,1024,1024,1024,0,0,0,0,216.7,0,95.967098215304,0,10,Assisted_Takeoff
19800,51.5197554889004,5.86038553163829,0,0.032808399999993,95.934289815304,95.967098215304,0.328084,0,1.11443245036,2.80507554908,20,5,95.967098215304,0,0,1.11443245036,0,0,0,217.8,2.3,0.2,0,0,1024,1024,1024,1024,0,0,0,0,216.7,0,95.967098215304,0,10,Assisted_Takeoff
19900,51.5197554806043,5.86038558997434,0,0.032808399999993,95.934289815304,95.967098215304,0.328084,0,1.11495738476,2.81866150752,20,5,95.967098215304,0,0,1.11495738476,0,0,0,217.8,2.3,0.2,0,0,1024,1024,1024,1024,0,0,0,0,216.7,0,95.967098215304,0,10,Assisted_Takeoff
20000,51.5197554575472,5.86038560798525,0,0.032808399999993,95.934289815304,95.967098215304,0.328084,0,1.12251644012,2.82801190152,20,5,95.967098215304,0,0,1.12251644012,0,0,0,217.8,2.3,0.3,0,0,1024,1024,1024,1024,0,0,0,0,216.7,0,95.967098215304,0,10,Assisted_Takeoff
20100,51.5197554261215,5.86038557615917,0,0.032808399999993,95.934289815304,95.967098215304,0.328084,0,1.13507549564,2.84156505156,20,5,95.967098215304,0,0,1.13507549564,0,0,0,217.8,2.3,0.2,0,0,1024,1024,1024,1024,0,0,0,0,216.7,0,95.967098215304,0,10,Assisted_Takeoff
20200,51.5197553805682,5.86038557717111,0,0.032808399999993,95.934289815304,95.967098215304,0.328084,0,1.15139111296,2.858185787,20,5,95.967098215304,0,0,1.15139111296,0,0,0,217.8,2.3,0.2,0,0,1024,1024,1024,1024,0,0,0,0,216.7,0,95.967098215304,0,10,Assisted_Takeoff
20300,51.5197553258851,5.86038561690853,0,0.032808399999993,95.934289815304,95.967098215304,0.328084,0,1.16951119228,2.88008211316,20,5,95.967098215304,0,0,1.16951119228,0,0,0,217.8,2.3,0.2,0,0,1024,1024,1024,1024,0,0,0,0,216.7,0,95.967098215304,0,10,Assisted_Takeoff
20400,51.5197552717719,5.86038564606278,0,0.032808399999993,95.934289815304,95.967098215304,0.328084,0,1.1879265472,2.90090560464,19,5,95.967098215304,0,0,1.1879265472,0,0,0,217.8,2.3,0.2,0,0,1024,1024,1024,1024,0,0,0,0,216.7,0,95.967098215304,0,10,Assisted_Takeoff
20500,51.5197551365613,5.86038570936643,0,0.032808399999993,95.934289815304,95.967098215304,0.328084,0,1.234580092,2.95229012072,19,5,95.967098215304,0,0,1.234580092,0,0,0,217.8,2.3,0.2,0,0,1024,1024,1024,1024,0,0,0,0,216.7,0,95.967098215304,0,10,Assisted_Takeoff
20600,51.5197551045062,5.86038572114998,0,0.032808399999993,95.934289815304,95.967098215304,0.328084,0,1.24579400312,2.96428487176,19,5,95.967098215304,0,0,1.24579400312,0,0,0,217.8,2.3,0.2,0,0,1024,1024,1024,1024,0,0,0,0,216.7,0,95.967098215304,0,10,Assisted_Takeoff
20700,51.5197550982628,5.86038572853126,0,0.032808399999993,95.934289815304,95.967098215304,0.328084,0,1.24782156224,2.96711295584,19,5,95.967098215304,0,0,1.24782156224,0,0,0,217.8,2.3,0.2,0,0,1024,1024,1024,1024,0,0,0,0,216.7,0,95.967098215304,0,10,Assisted_Takeoff
20800,51.5197550988132,5.8603857351011,0,0.032808399999993,95.934289815304,95.967098215304,0.328084,0,1.2474245806,2.9686188614,19,5,95.967098215304,0,0,1.24782156224,0,0,0,217.8,2.3,0.2,0,0,1024,1024,1024,1024,0,0,0,0,216.7,0,95.967098215304,0,10,Assisted_Takeoff
20900,51.5197552163877,5.86038569979176,0,0.032808399999993,95.934289815304,95.967098215304,0.328084,0,1.20605974988,3.01225731424,19,5,95.967098215304,0,0,1.24782156224,0,0,0,217.8,2.3,0.2,0,0,1024,1024,1024,1024,0,0,0,0,216.7,0,95.967098215304,0,10,Assisted_Takeoff
21000,51.5197552031745,5.86038570724619,0,0.032808399999993,95.934289815304,95.967098215304,0.328084,0,1.21058730908,3.01736886296,19,5,95.967098215304,0,0,1.24782156224,0,0,0,217.8,2.3,0.3,0,0,1024,1024,1024,1024,0,0,0,0,216.6,0,95.967098215304,0,10,Assisted_Takeoff
21100,51.5197551592545,5.86038571648182,0,0.032808399999993,95.934289815304,95.967098215304,0.328084,0,1.22615489488,3.03352699996,19,5,95.967098215304,0,0,1.24782156224,0,0,0,217.8,2.3,0.2,0,0,1024,1024,1024,1024,0,0,0,0,216.7,0,95.967098215304,0,10,Assisted_Takeoff
21200,51.5197551555742,5.86038572369875,0,0.032808399999993,95.934289815304,95.967098215304,0.328084,0,1.22725725712,3.0356464226,19,5,95.967098215304,0,0,1.24782156224,0,0,0,217.8,2.3,0.2,0,0,1024,1024,1024,1024,0,0,0,0,216.6,0,95.967098215304,0,10,Assisted_Takeoff
21300,51.5197552845006,5.86038565576394,0,0.032808399999993,95.934289815304,95.967098215304,0.328084,0,1.18299544468,3.08515101736,19,5,95.967098215304,0,0,1.24782156224,0,0,0,217.8,2.3,0.2,0,0,1024,1024,1024,1024,0,0,0,0,216.6,0,95.967098215304,0,10,Assisted_Takeoff
21400,51.5197552977643,5.86038565528207,0,0.032808399999993,95.934289815304,95.967098215304,0.328084,0,1.178231665,3.08999025636,19,5,95.967098215304,0,0,1.24782156224,0,0,0,217.8,2.3,0.2,0,0,1024,1024,1024,1024,0,0,0,0,216.6,0,95.967098215304,0,10,Assisted_Takeoff
21500,51.5197552695963,5.86038565468059,0,0.032808399999993,95.934289815304,95.967098215304,0.328084,0,1.18840554984,3.10026912808,19,5,95.967098215304,0,0,1.24782156224,0,0,0,217.8,2.3,0.2,0,0,1024,1024,1024,1024,0,0,0,0,216.6,0,95.967098215304,0,10,Assisted_Takeoff
21600,51.5197552707858,5.86038565438372,0,0.032808399999993,95.934289815304,95.967098215304,0.328084,0,1.18798560232,3.1007054798,20,5,95.967098215304,0,0,1.24782156224,0,0,0,217.7,2.3,0.2,0,0,1024,1024,1024,1024,0,0,0,0,216.6,0,95.967098215304,0,10,Assisted_Takeoff
21700,51.5197553151732,5.8603856549766,0,0.032808399999993,95.934289815304,95.967098215304,0.328084,0,1.17197182228,3.11690298688,20,5,95.967098215304,0,0,1.24782156224,0,0,0,217.7,2.3,0.2,0,0,1024,1024,1024,1024,0,0,0,0,216.6,0,95.967098215304,0,10,Assisted_Takeoff
21800,51.5197553754728,5.86038563668258,0,0.032808399999993,95.934289815304,95.967098215304,0.328084,0,1.15092523368,3.13929143904,20,5,95.967098215304,0,0,1.24782156224,0,0,0,217.7,2.3,0.2,0,0,1024,1024,1024,1024,0,0,0,0,216.6,0,95.967098215304,0,10,Assisted_Takeoff
21900,51.5197553420588,5.86038564081035,0,0.032808399999993,95.934289815304,95.967098215304,0.328084,0,1.16280187448,3.15151912972,20,5,95.967098215304,0,0,1.24782156224,0,0,0,217.7,2.3,0.2,0,0,1024,1024,1024,1024,0,0,0,0,216.6,0,95.967098215304,0,10,Assisted_Takeoff
22000,51.519755316186,5.86038564546388,0,0.032808399999993,95.934289815304,95.967098215304,0.328084,0,1.1719488564,3.16101716152,20,5,95.967098215304,0,0,1.24782156224,0,0,0,217.7,2.3,0.2,0,0,1024,1024,1024,1024,0,0,0,0,216.6,0,95.967098215304,0,10,Assisted_Takeoff
22100,51.5197553013314,5.86038565095983,0,0.032808399999993,95.934289815304,95.967098215304,0.328084,0,1.17710305604,3.16657818532,20,5,95.967098215304,0,0,1.24782156224,0,0,0,217.7,2.3,0.2,0,0,1024,1024,1024,1024,0,0,0,0,216.6,0,95.967098215304,0,10,Assisted_Takeoff
22200,51.5197552110162,5.86038564117606,0,0.032808399999993,95.934289815304,95.967098215304,0.328084,0,1.20999347704,3.19960312076,20,5,95.967098215304,0,0,1.24782156224,0,0,0,217.7,2.3,0.2,0,0,1024,1024,1024,1024,0,0,0,0,216.6,0,95.967098215304,0,10,Assisted_Takeoff
22300,51.5197552049625,5.86038564643882,0,0.032808399999993,95.934289815304,95.967098215304,0.328084,0,1.2119915086,3.2021162442,20,5,95.967098215304,0,0,1.24782156224,0,0,0,217.7,2.3,0.2,0,0,1024,1024,1024,1024,0,0,0,0,216.6,0,95.967098215304,0,10,Assisted_Takeoff
22400,51.519755201283,5.86038565157938,0,0.032808399999993,95.934289815304,95.967098215304,0.328084,0,1.2131398026,3.20389445948,20,5,95.967098215304,0,0,1.24782156224,0,0,0,217.7,2.2,0.2,0,0,1024,1024,1024,1024,0,0,0,0,216.6,0,95.967098215304,0,10,Assisted_Takeoff
22500,51.5197552000332,5.86038565657108,0,0.032808399999993,95.934289815304,95.967098215304,0.328084,0,1.213418674,3.20511493196,20,5,95.967098215304,0,0,1.24782156224,0,0,0,217.7,2.3,0.2,0,0,1024,1024,1024,1024,0,0,0,0,216.6,0,95.967098215304,0,10,Assisted_Takeoff
22600,51.519755236547,5.86038553614725,0,0.032808399999993,95.934289815304,95.967098215304,0.328084,0,1.2047572564,3.23552831876,20,5,95.967098215304,0,0,1.24782156224,0,0,0,217.7,2.3,0.2,0,0,1024,1024,1024,1024,0,0,0,0,216.6,0,95.967098215304,0,10,Assisted_Takeoff
22700,51.5197552378563,5.86038548722583,0,0.065616799999999,95.901481415304,95.967098215304,0.328084,0,1.20628940868,3.24664380468,20,5,95.967098215304,0,0,1.24782156224,0,0,0,217.7,2.3,0.2,0,0,1024,1024,1024,1024,0,0,0,0,216.6,0,95.967098215304,0,10,Assisted_Takeoff
22800,51.5197552393349,5.86038545439814,0,0.065616799999999,95.901481415304,95.967098215304,0.328084,0,1.20715883128,3.2541175582,20,5,95.967098215304,0,0,1.24782156224,0,0,0,217.7,2.3,0.2,0,0,1024,1024,1024,1024,0,0,0,0,216.6,0,95.967098215304,0,10,Assisted_Takeoff
22900,51.5197552412223,5.86038543950651,0,0.065616799999999,95.901481415304,95.967098215304,0.328084,0,1.20713258456,3.25756900188,20,5,95.967098215304,0,0,1.24782156224,0,0,0,217.7,2.3,0.2,0,0,1024,1024,1024,1024,0,0,0,0,216.6,0,95.967098215304,0,10,Assisted_Takeoff
