time_millisecond_,latitude,longitude,height_above_takeoff_feet_,height_above_ground_at_drone_location_feet_,ground_elevation_at_drone_location_feet_,altitude_above_seaLevel_feet_,height_sonar_feet_,speed_mph_,distance_feet_,mileage_feet_,satellites,gpslevel,max_altitude_feet_,max_ascent_feet_,max_speed_mph_,max_distance_feet_,xSpeed_mph_,ySpeed_mph_,zSpeed_mph_,compass_heading_degrees_,pitch_degrees_,roll_degrees_,isPhoto,isVideo,rc_elevator,rc_aileron,rc_throttle,rc_rudder,rc_elevator_percent_,rc_aileron_percent_,rc_throttle_percent_,rc_rudder_percent_,gimbal_heading_degrees_,gimbal_pitch_degrees_,altitude_feet_,ascent_feet_,flycStateRaw,flycState
0,51.519756478508,5.86043085768131,0,0,96.112833784272,96.112833784272,0.328084,0,0,0,27,5,96.112833784272,0,0,0,0,0,0,336.2,3.9,-1.3,0,0,364,364,364,1684,-100,-100,-100,100,336.2,0.1,96.112833784272,0,41,Motors_Started
200,51.5197564732287,5.86043084992318,0,0,96.112833784272,96.112833784272,0.328084,0,0.00261003617276,0.00261003617276,27,5,96.112833784272,0,0,0.00261003617276,0,0,0,336.2,3.9,-1.3,0,0,364,364,364,1684,-100,-100,-100,100,336.2,0.1,96.112833784272,0,41,Motors_Started
400,51.5197564651576,5.8604308526578,0,0,96.112833784272,96.112833784272,0.328084,0,0.005002624832,0.0056194883688,27,5,96.112833784272,0,0,0.005002624832,0,0,0,336.2,3.9,-1.3,0,0,364,364,364,1684,-100,-100,-100,100,336.2,0.1,96.112833784272,0,41,Motors_Started
600,51.5197564478364,5.86043087988095,0,0,96.112833784272,96.112833784272,0,0,0.0122730975056,0.0144588915388,27,5,96.112833784272,0,0,0.0122730975056,0,0,0,336.5,3.9,-1.3,0,0,364,364,364,1684,-100,-100,-100,100,336.3,0.1,96.112833784272,0,41,Motors_Started
800,51.5197564357495,5.86043089763533,0,0,96.112833784272,96.112833784272,0,0,0.0180457354856,0.0204333011788,27,5,96.112833784272,0,0,0.0180457354856,0,0,0,335.8,4,-1.3,0,0,1024,1024,1024,1024,0,0,0,0,336.2,0.1,96.112833784272,0,41,Motors_Started
1000,51.519756432961,5.8604309116509,0,0,96.112833784272,96.112833784272,0,0,0.0206464245452,0.0237738852752,27,5,96.112833784272,0,0,0.0206464245452,0,0,0,335.8,4,-1.3,0,0,1024,1024,1024,1024,0,0,0,0,336.2,0.1,96.112833784272,0,41,Motors_Started
1200,51.5197564362903,5.86043092561829,0,0,96.112833784272,96.112833784272,0,0,0.0217976713012,0.0271695218668,27,5,96.112833784272,0,0,0.0217976713012,0,0,0,335.8,4,-1.3,0,0,1024,1024,1024,1024,0,0,0,0,336.2,0.1,96.112833784272,0,41,Motors_Started
1400,51.5197564383774,5.86043093841025,0,0,96.112833784272,96.112833784272,0,0,0.0234579731916,0.0301718185508,27,5,96.112833784272,0,0,0.0234579731916,0,0,0,335.8,4,-1.3,0,0,1024,1024,1024,1024,0,0,0,0,336.2,0.1,96.112833784272,0,41,Motors_Started
1600,51.5197564386858,5.86043096028807,0,0,96.112833784272,96.112833784272,0,0,0.0274540035032,0.035139764904,27,5,96.112833784272,0,0,0.0274540035032,0,0,0,335.9,4,-1.3,0,0,1024,1024,1024,1024,0,0,0,0,336.2,0.1,96.112833784272,0,10,Assisted_Takeoff
1800,51.5197564365238,5.86043099097725,0,0,96.112833784272,96.112833784272,0,0,0.033917652004,0.042151576152,27,5,96.112833784272,0,0,0.033917652004,0,0,0,336,4,-1.3,0,0,1024,1024,1024,1024,0,0,0,0,336.2,0.1,96.112833784272,0,10,Assisted_Takeoff
2000,51.5197564324855,5.86043099728374,0,0,96.112833784272,96.112833784272,0,0,0.035866470964,0.04420603816,27,5,96.112833784272,0,0,0.035866470964,0,0,0,336,4,-1.3,0,0,1024,1024,1024,1024,0,0,0,0,336.2,0.1,96.112833784272,0,10,Assisted_Takeoff
2200,51.5197564282717,5.86043101272858,0,0,96.112833784272,96.112833784272,0,0,0.039685696808,0.04803477844,26,5,96.112833784272,0,0,0.039685696808,0,0,0,336,4,-1.3,0,0,1024,1024,1024,1024,0,0,0,0,336.2,0.1,96.112833784272,0,10,Assisted_Takeoff
2400,51.5197564237162,5.86043104858325,0,0,96.112833784272,96.112833784272,0,0,0.0477280199,0.056342521488,27,5,96.112833784272,0,0,0.0477280199,0,0,0,336,4,-1.3,0,0,1024,1024,1024,1024,0,0,0,0,336.2,0.1,96.112833784272,0,10,Assisted_Takeoff
2600,51.5197564190965,5.86043108028092,0,0,96.112833784272,96.112833784272,0,0,0.05498851882,0.06373359784,26,5,96.112833784272,0,0,0.05498851882,0,0,0,336,4,-1.3,0,0,1024,1024,1024,1024,0,0,0,0,336.2,0.1,96.112833784272,0,10,Assisted_Takeoff
2800,51.5197564138878,5.86043110765637,0,0,96.112833784272,96.112833784272,0,0,0.06145341404,0.070232613796,26,5,96.112833784272,0,0,0.06145341404,0,0,0,336,4,-1.3,0,0,1024,1024,1024,1024,0,0,0,0,336.2,0.1,96.112833784272,0,10,Assisted_Takeoff
3000,51.5197564084147,5.86043113085245,0,0,96.112833784272,96.112833784272,0,0,0.067082679312,0.07586450374,26,5,96.112833784272,0,0,0.067082679312,0,0,0,336.1,4,-1.3,0,0,1024,1024,1024,1024,0,0,0,0,336.2,0.1,96.112833784272,0,10,Assisted_Takeoff
3200,51.5197564117076,5.86043115067716,0,0,96.112833784272,96.112833784272,0,0,0.070841865784,0.080522640372,26,5,96.112833784272,0,0,0.070841865784,0,0,0,336.1,4,-1.3,0,0,1024,1024,1024,1024,0,0,0,0,336.2,0.1,96.112833784272,0,10,Assisted_Takeoff
3400,51.5197564349967,5.86043116807874,0,0,96.112833784272,96.112833784272,0,0,0.07223425428,0.08989337558,26,5,96.112833784272,0,0,0.07223425428,0,0,0,336,4,-1.3,0,0,1024,1024,1024,1024,0,0,0,0,336.2,0.1,96.112833784272,0,10,Assisted_Takeoff
3600,51.5197564547167,5.86043118291779,0,0,96.112833784272,96.112833784272,0,0,0.07434547482,0.09783792964,26,5,96.112833784272,0,0,0.07434547482,0,0,0,336,4,-1.3,0,0,1024,1024,1024,1024,0,0,0,0,336.2,0.1,96.112833784272,0,10,Assisted_Takeoff
3800,51.5197564702924,5.86043119583969,0,0,96.112833784272,96.112833784272,0,0,0.0768290707,0.104232942968,27,5,96.112833784272,0,0,0.0768290707,0,0,0,336.1,4,-1.3,0,0,1024,1024,1024,1024,0,0,0,0,336.2,0.1,96.112833784272,0,10,Assisted_Takeoff
4000,51.5197564815289,5.86043120914794,0,0,96.112833784272,96.112833784272,0,0,0.079799543236,0.1093257909,27,5,96.112833784272,0,0,0.079799543236,0,0,0,336.1,4.1,-1.3,0,0,1024,1024,1024,1024,0,0,0,0,336.2,0.1,96.112833784272,0,10,Assisted_Takeoff
4200,51.5197564887787,5.86043121987216,0,0,96.112833784272,96.112833784272,0,0,0.082312010508,0.112920935372,27,5,96.112833784272,0,0,0.082312010508,0,0,0,336.1,4.1,-1.3,0,0,1024,1024,1024,1024,0,0,0,0,336.2,0.1,96.112833784272,0,10,Assisted_Takeoff
4400,51.5197564925685,5.86043122832212,0,0,96.112833784272,96.112833784272,0,0,0.0843011838,0.11528543676,27,5,96.112833784272,0,0,0.0843011838,0,0,0,336.1,4.1,-1.3,0,0,1024,1024,1024,1024,0,0,0,0,336.2,0.1,96.112833784272,0,10,Assisted_Takeoff
4600,51.519756495251,5.8604312254111,0,0,96.112833784272,96.112833784272,0,0,0.08370735176,0.11646653916,27,5,96.112833784272,0,0,0.0843011838,0,0,0,336.1,4.1,-1.3,0,0,1024,1024,1024,1024,0,0,0,0,336.2,0.1,96.112833784272,0,10,Assisted_Takeoff
4800,51.5197564959246,5.86043119951568,0,0,96.112833784272,96.112833784272,0,0,0.077864831888,0.122350397616,27,5,96.112833784272,0,0,0.0843011838,0,0,0,336.1,4.1,-1.3,0,0,1024,1024,1024,1024,0,0,0,0,336.2,0.1,96.112833784272,0,10,Assisted_Takeoff
5000,51.5197565026389,5.86043117428369,0,0,96.112833784272,96.112833784272,0,0,0.072414044312,0.128580712776,27,5,96.112833784272,0,0,0.0843011838,0,0,0,336.1,4.1,-1.3,0,0,1024,1024,1024,1024,0,0,0,0,336.2,0.1,96.112833784272,0,10,Assisted_Takeoff
5200,51.5197565186312,5.86043115097058,0,0,96.112833784272,96.112833784272,0,0,0.068174542864,0.1364583377,27,5,96.112833784272,0,0,0.0843011838,0,0,0,336.1,4.1,-1.3,0,0,1024,1024,1024,1024,0,0,0,0,336.2,0.1,96.112833784272,0,10,Assisted_Takeoff
5400,51.5197565185947,5.86043112943437,0,0,96.112833784272,96.112833784272,0,0,0.063404857672,0.141347445468,26,5,96.112833784272,0,0,0.0843011838,0,0,0,336.1,4.1,-1.3,0,0,1024,1024,1024,1024,0,0,0,0,336.2,0.1,96.112833784272,0,10,Assisted_Takeoff
5600,51.5197565283782,5.86043110796356,0,0,96.112833784272,96.112833784272,0,0,0.059662731568,0.147389112328,26,5,96.112833784272,0,0,0.0843011838,0,0,0,336.1,4.1,-1.3,0,0,1024,1024,1024,1024,0,0,0,0,336.2,0.1,96.112833784272,0,10,Assisted_Takeoff
5800,51.5197565218255,5.86043108783425,0,0,96.112833784272,96.112833784272,0,0,0.054588584424,0.152546592808,26,5,96.112833784272,0,0,0.0843011838,0,0,0,336.1,4.1,-1.3,0,0,1024,1024,1024,1024,0,0,0,0,336.2,0.1,96.112833784272,0,10,Assisted_Takeoff
6000,51.5197565353013,5.86043106751993,0,0,96.112833784272,96.112833784272,0,0,0.051950132896,0.159287734756,26,5,96.112833784272,0,0,0.0843011838,0,0,0,336.1,4.1,-1.3,0,0,1024,1024,1024,1024,0,0,0,0,336.2,0.1,96.112833784272,0,10,Assisted_Takeoff
6200,51.5197565446585,5.8604310503111,0,0,96.112833784272,96.112833784272,0,0,0.049949804748,0.164476055132,26,5,96.112833784272,0,0,0.0843011838,0,0,0,336.1,4.1,-1.3,0,0,1024,1024,1024,1024,0,0,0,0,336.2,0.1,96.112833784272,0,10,Assisted_Takeoff
6400,51.5197565507249,5.86043103394727,0,0,96.112833784272,96.112833784272,0,0,0.047912403108,0.168800530336,26,5,96.112833784272,0,0,0.0843011838,0,0,0,336.1,4.1,-1.3,0,0,1024,1024,1024,1024,0,0,0,0,336.2,0.1,96.112833784272,0,10,Assisted_Takeoff
6600,51.5197565548521,5.86043101318119,0,0,96.112833784272,96.112833784272,0,0,0.044967849208,0.173749349392,26,5,96.112833784272,0,0,0.0843011838,0,0,0,336.1,4.1,-1.3,0,0,1024,1024,1024,1024,0,0,0,0,336.2,0.1,96.112833784272,0,10,Assisted_Takeoff
6800,51.5197565580529,5.86043097750722,0,0,96.112833784272,96.112833784272,0,0,0.039778216496,0.181932092436,27,5,96.112833784272,0,0,0.0843011838,0,0,0,336.1,4.1,-1.3,0,0,1024,1024,1024,1024,0,0,0,0,336.2,0.1,96.112833784272,0,10,Assisted_Takeoff
7000,51.5197565590584,5.86043095118328,0,0,96.112833784272,96.112833784272,0,0,0.036253282,0.187919625436,26,5,96.112833784272,0,0,0.0843011838,0,0,0,336.1,4.1,-1.3,0,0,1024,1024,1024,1024,0,0,0,0,336.2,0.1,96.112833784272,0,10,Assisted_Takeoff
7200,51.5197565578665,5.8604309404823,0,0,96.112833784272,96.112833784272,0,0,0.03452099848,0.190387473284,26,5,96.112833784272,0,0,0.0843011838,0,0,0,336.1,4.1,-1.3,0,0,1024,1024,1024,1024,0,0,0,0,336.2,0.1,96.112833784272,0,10,Assisted_Takeoff
7400,51.5197565544012,5.86043094794786,0,0,96.112833784272,96.112833784272,0,0,0.034448163832,0.192501974664,26,5,96.112833784272,0,0,0.0843011838,0,0,0,336.1,4.1,-1.3,0,0,1024,1024,1024,1024,0,0,0,0,336.2,0.1,96.112833784272,0,10,Assisted_Takeoff
7600,51.5197565485554,5.86043093550095,0,0,96.112833784272,96.112833784272,0,0,0.0310688002068,0.196042329108,26,5,96.112833784272,0,0,0.0843011838,0,0,0,336.1,4.1,-1.3,0,0,1024,1024,1024,1024,0,0,0,0,336.2,0.1,96.112833784272,0,10,Assisted_Takeoff
7800,51.5197565406031,5.86043092689438,0,0,96.112833784272,96.112833784272,0,0,0.0275711294912,0.199540360716,26,5,96.112833784272,0,0,0.0843011838,0,0,0,336.1,4.1,-1.3,0,0,1024,1024,1024,1024,0,0,0,0,336.2,0.1,96.112833784272,0,10,Assisted_Takeoff
8000,51.5197565320555,5.86043091876539,0,0,96.112833784272,96.112833784272,0,0,0.0239582356748,0.203164048496,26,5,96.112833784272,0,0,0.0843011838,0,0,0,336.1,4.1,-1.4,0,0,1024,1024,1024,1024,0,0,0,0,336.2,0.1,96.112833784272,0,10,Assisted_Takeoff
8200,51.5197565238302,5.86043091212159,0,0,96.112833784272,96.112833784272,0,0,0.0206442263824,0.206522972488,26,5,96.112833784272,0,0,0.0843011838,0,0,0,336.1,4.1,-1.4,0,0,1024,1024,1024,1024,0,0,0,0,336.2,0.1,96.112833784272,0,10,Assisted_Takeoff
8400,51.5197565158501,5.86043090826059,0,0,96.112833784272,96.112833784272,0,0,0.0178178155308,0.209563655,26,5,96.112833784272,0,0,0.0843011838,0,0,0,336.1,4.1,-1.4,0,0,1024,1024,1024,1024,0,0,0,0,336.2,0.1,96.112833784272,0,10,Assisted_Takeoff
8600,51.5197565171566,5.86043090406659,0,0,96.112833784272,96.112833784272,0,0,0.0175991475448,0.21062828758,26,5,96.112833784272,0,0,0.0843011838,0,0,0,336.1,4.1,-1.3,0,0,1024,1024,1024,1024,0,0,0,0,336.2,0.1,96.112833784272,0,10,Assisted_Takeoff
8800,51.5197565293998,5.86043089746926,0,0,96.112833784272,96.112833784272,0,0,0.0206484258576,0.21533957382,26,5,96.112833784272,0,0,0.0843011838,0,0,0,336.1,4.1,-1.3,0,0,1024,1024,1024,1024,0,0,0,0,336.2,0.1,96.112833784272,0,10,Assisted_Takeoff
9000,51.5197565194354,5.86043089100874,0,0,96.112833784272,96.112833784272,0,0,0.0167397971236,0.219259849536,26,5,96.112833784272,0,0,0.0843011838,0,0,0,336.1,4.1,-1.3,0,0,1024,1024,1024,1024,0,0,0,0,336.2,0.1,96.112833784272,0,10,Assisted_Takeoff
9200,51.5197565119436,5.86043087960646,0,0,96.112833784272,96.112833784272,0,0,0.0131753941224,0.223024285352,26,5,96.112833784272,0,0,0.0843011838,0,0,0,336.1,4.1,-1.3,0,0,1024,1024,1024,1024,0,0,0,0,336.2,0.1,96.112833784272,0,10,Assisted_Takeoff
9400,51.519756506705,5.86043086025244,0,0,96.112833784272,96.112833784272,0,0,0.0103041669964,0.227815952172,27,5,96.112833784272,0,0,0.0843011838,0,0,0,336.1,4.1,-1.3,0,0,1024,1024,1024,1024,0,0,0,0,336.2,0.1,96.112833784272,0,10,Assisted_Takeoff
9600,51.5197565131451,5.86043086869895,0,0,96.112833784272,96.112833784272,0,0,0.0128824807272,0.230848760668,26,5,96.112833784272,0,0,0.0843011838,0,0,0,336.1,4.1,-1.3,0,0,1024,1024,1024,1024,0,0,0,0,336.2,0.1,96.112833784272,0,10,Assisted_Takeoff
9800,51.5197565404232,5.86043087085705,0,0,96.112833784272,96.112833784272,0,0,0.022786910178,0.240813327916,27,5,96.112833784272,0,0,0.0843011838,0,0,0,336.1,4.1,-1.3,0,0,1024,1024,1024,1024,0,0,0,0,336.2,0.1,96.112833784272,0,10,Assisted_Takeoff
10000,51.5197565647629,5.86043085414042,0,0,96.112833784272,96.112833784272,0,0,0.0314802831596,0.250470480456,27,5,96.112833784272,0,0,0.0843011838,0,0,0,336.1,4.1,-1.3,0,0,1024,1024,1024,1024,0,0,0,0,336.2,0.1,96.112833784272,0,10,Assisted_Takeoff
10200,51.5197565854316,5.86043084052239,0,0,96.112833784272,96.112833784272,0,0,0.039205053748,0.258620743184,27,5,96.112833784272,0,0,0.0843011838,0,0,0,336.1,4.1,-1.3,0,0,1024,1024,1024,1024,0,0,0,0,336.2,0.1,96.112833784272,0,10,Assisted_Takeoff
10400,51.5197566027689,5.86043082745335,0,0,96.112833784272,96.112833784272,0,0,0.04585301984,0.265607620048,26,5,96.112833784272,0,0,0.0843011838,0,0,0,336.1,4.1,-1.3,0,0,1024,1024,1024,1024,0,0,0,0,336.2,0.1,96.112833784272,0,10,Assisted_Takeoff
10600,51.5197566164535,5.86043081683067,0,0,96.112833784272,96.112833784272,0,0,0.051176510824,0.271152239648,26,5,96.112833784272,0,0,0.0843011838,0,0,0,336.1,4.1,-1.3,0,0,1024,1024,1024,1024,0,0,0,0,336.2,0.1,96.112833784272,0,10,Assisted_Takeoff
10800,51.5197566269522,5.86043080729564,0,0,96.112833784272,96.112833784272,0,0,0.055354660564,0.275552174172,26,5,96.112833784272,0,0,0.0843011838,0,0,0,336.1,4.1,-1.3,0,0,1024,1024,1024,1024,0,0,0,0,336.2,0.1,96.112833784272,0,10,Assisted_Takeoff
11000,51.5197566358275,5.86043079929916,0,0,96.112833784272,96.112833784272,0,0,0.058908466452,0.279264444632,26,5,96.112833784272,0,0,0.0843011838,0,0,0,336.1,4.1,-1.3,0,0,1024,1024,1024,1024,0,0,0,0,336.2,0.1,96.112833784272,0,10,Assisted_Takeoff
11200,51.5197566438526,5.86043079261921,0,0,96.112833784272,96.112833784272,0,0,0.06210794162,0.282561688832,26,5,96.112833784272,0,0,0.0843011838,0,0,0,336.1,4.1,-1.3,0,0,1024,1024,1024,1024,0,0,0,0,336.2,0.1,96.112833784272,0,10,Assisted_Takeoff
11400,51.5197566511912,5.8604307858145,0,0,96.112833784272,96.112833784272,0,0,0.065081694996,0.28565289628,26,5,96.112833784272,0,0,0.0843011838,0,0,0,336.1,4.1,-1.3,0,0,1024,1024,1024,1024,0,0,0,0,336.2,0.1,96.112833784272,0,10,Assisted_Takeoff
11600,51.5197566565166,5.86043077945638,0,0,96.112833784272,96.112833784272,0,0,0.067330710816,0.288073500032,26,5,96.112833784272,0,0,0.0843011838,0,0,0,336.1,4.1,-1.3,0,0,1024,1024,1024,1024,0,0,0,0,336.2,0.1,96.112833784272,0,10,Assisted_Takeoff
11800,51.5197566610121,5.860430773988,0,0,96.112833784272,96.112833784272,0,0,0.069244424788,0.290130586712,26,5,96.112833784272,0,0,0.0843011838,0,0,0,336.1,4.1,-1.3,0,0,1024,1024,1024,1024,0,0,0,0,336.2,0.1,96.112833784272,0,10,Assisted_Takeoff
12000,51.5197566649026,5.86043076899289,0,0,96.112833784272,96.112833784272,0,0,0.070923886784,0.29194718782,26,5,96.112833784272,0,0,0.0843011838,0,0,0,336.1,4.1,-1.3,0,0,1024,1024,1024,1024,0,0,0,0,336.2,0.1,96.112833784272,0,10,Assisted_Takeoff
12200,51.5197566686142,5.86043075480436,0,0,96.112833784272,96.112833784272,0,0,0.073186682132,0.295441610504,26,5,96.112833784272,0,0,0.0843011838,0,0,0,336.1,4.1,-1.3,0,0,1024,1024,1024,1024,0,0,0,0,336.2,0.1,96.112833784272,0,10,Assisted_Takeoff
12400,51.5197566711307,5.86043072369612,0,0,96.112833784272,96.112833784272,0,0,0.076578742608,0.302563329892,26,5,96.112833784272,0,0,0.0843011838,0,0,0,336.1,4.1,-1.3,0,0,1024,1024,1024,1024,0,0,0,0,336.2,0.1,96.112833784272,0,10,Assisted_Takeoff
12600,51.5197566733495,5.86043070962032,0,0,96.112833784272,96.112833784272,0,0,0.078634188868,0.305859917924,26,5,96.112833784272,0,0,0.0843011838,0,0,0,336.1,4.1,-1.3,0,0,1024,1024,1024,1024,0,0,0,0,336.2,0.1,96.112833784272,0,10,Assisted_Takeoff
12800,51.5197566753617,5.86043071133612,0,0,96.112833784272,96.112833784272,0,0,0.079134188884,0.306690954696,26,5,96.112833784272,0,0,0.0843011838,0,0,0,336.1,4.1,-1.3,0,0,1024,1024,1024,1024,0,0,0,0,336.2,0.1,96.112833784272,0,10,Assisted_Takeoff
13000,51.5197566770258,5.86043070251099,0,0,96.112833784272,96.112833784272,0,0,0.080541669244,0.3087844587,26,5,96.112833784272,0,0,0.0843011838,0,0,0,336.1,4.1,-1.3,0,0,1024,1024,1024,1024,0,0,0,0,336.2,0.1,96.112833784272,0,10,Assisted_Takeoff
13200,51.5197566780913,5.86043071790334,0,0,96.112833784272,96.112833784272,0,0,0.079432089156,0.312300534928,26,5,96.112833784272,0,0,0.0843011838,0,0,0,336.1,4.1,-1.3,0,0,1024,1024,1024,1024,0,0,0,0,336.2,0.1,96.112833784272,0,10,Assisted_Takeoff
13400,51.5197566784062,5.86043072405236,0,0,96.112833784272,96.112833784272,0,0,0.078990816176,0.313701125524,26,5,96.112833784272,0,0,0.0843011838,0,0,0,336.1,4.1,-1.3,0,0,1024,1024,1024,1024,0,0,0,0,336.2,0.1,96.112833784272,0,10,Assisted_Takeoff
13600,51.5197566783355,5.8604307182613,0,0,96.112833784272,96.112833784272,0,0,0.079481301756,0.315016086196,26,5,96.112833784272,0,0,0.0843011838,0,0,0,336.2,4.1,-1.3,0,0,1024,1024,1024,1024,0,0,0,0,336.2,0.1,96.112833784272,0,10,Assisted_Takeoff
13800,51.5197566782006,5.86043072537493,0,0,96.112833784272,96.112833784272,0,0,0.078806432968,0.316631899896,26,5,96.112833784272,0,0,0.0843011838,0,0,0,336.1,4.1,-1.3,0,0,1024,1024,1024,1024,0,0,0,0,336.2,0.1,96.112833784272,0,10,Assisted_Takeoff
14000,51.5197566768898,5.86043071045671,0,0,96.112833784272,96.112833784272,0,0,0.079724083916,0.320052175596,26,5,96.112833784272,0,0,0.0843011838,0,0,0,336.2,4.1,-1.3,0,0,1024,1024,1024,1024,0,0,0,0,336.2,0.1,96.112833784272,0,10,Assisted_Takeoff
14200,51.5197566753981,5.86043069651686,0,0,96.112833784272,96.112833784272,0,0,0.080616472396,0.323263461788,26,5,96.112833784272,0,0,0.0843011838,0,0,0,336.2,4.1,-1.3,0,0,1024,1024,1024,1024,0,0,0,0,336.2,0.1,96.112833784272,0,10,Assisted_Takeoff
14400,51.5197566734266,5.86043068473424,0,0,96.112833784272,96.112833784272,0,0,0.081234910736,0.326033475,26,5,96.112833784272,0,0,0.0843011838,0,0,0,336.1,4.1,-1.3,0,0,1024,1024,1024,1024,0,0,0,0,336.2,0.1,96.112833784272,0,10,Assisted_Takeoff
14600,51.5197566718021,5.86043068463959,0,0,96.112833784272,96.112833784272,0,0,0.080727036704,0.326626322788,26,5,96.112833784272,0,0,0.0843011838,0,0,0,336.1,4.1,-1.3,0,0,1024,1024,1024,1024,0,0,0,0,336.2,0.1,96.112833784272,0,10,Assisted_Takeoff
14800,51.5197566712282,5.86043070503221,0,0,96.112833784272,96.112833784272,0,0,0.078390094372,0.33125985312,26,5,96.112833784272,0,0,0.0843011838,0,0,0,336.2,4.1,-1.3,0,0,1024,1024,1024,1024,0,0,0,0,336.2,0.1,96.112833784272,0,10,Assisted_Takeoff
15000,51.5197566708608,5.8604307212317,0,0,96.112833784272,96.112833784272,0,0,0.07671260088,0.3349409556,26,5,96.112833784272,0,0,0.0843011838,0,0,0,336.2,4.1,-1.3,0,0,1024,1024,1024,1024,0,0,0,0,336.2,0.1,96.112833784272,0,10,Assisted_Takeoff
15200,51.5197566703404,5.86043073190859,0,0,96.112833784272,96.112833784272,0,0,0.075590225516,0.33737205804,26,5,96.112833784272,0,0,0.0843011838,0,0,0,336.2,4.1,-1.3,0,0,1024,1024,1024,1024,0,0,0,0,336.2,0.1,96.112833784272,0,10,Assisted_Takeoff
15400,51.5197566796955,5.86043073819185,0,0,96.112833784272,96.112833784272,0,0,0.078255251848,0.34107284556,26,5,96.112833784272,0,0,0.0843011838,0,0,0,336.2,4.1,-1.3,0,0,1024,1024,1024,1024,0,0,0,0,336.2,0.1,96.112833784272,0,10,Assisted_Takeoff
15600,51.5197566999187,5.86043074380651,0,0,96.112833784272,96.112833784272,0,0,0.084817588016,0.34855972244,26,5,96.112833784272,0,0,0.084817588016,0,0,0,336.2,4.1,-1.3,0,0,1024,1024,1024,1024,0,0,0,0,336.2,0.1,96.112833784272,0,10,Assisted_Takeoff
15800,51.5197566962403,5.86043074968534,0,0,96.112833784272,96.112833784272,0,0,0.083137141768,0.35045276712,26,5,96.112833784272,0,0,0.084817588016,0,0,0,336.2,4.1,-1.3,0,0,1024,1024,1024,1024,0,0,0,0,336.2,0.1,96.112833784272,0,10,Assisted_Takeoff
16000,51.5197567021087,5.8604307560753,0,0,96.112833784272,96.112833784272,0,0,0.084778874104,0.35303806904,26,5,96.112833784272,0,0,0.084817588016,0,0,0,336.1,4.1,-1.3,0,0,1024,1024,1024,1024,0,0,0,0,336.2,0.1,96.112833784272,0,10,Assisted_Takeoff
16200,51.5197567268167,5.86043076181301,0,0,96.112833784272,96.112833784272,0,0,0.093172903244,0.36214568088,26,5,96.112833784272,0,0,0.093172903244,0,0,0,336.1,4.1,-1.3,0,0,1024,1024,1024,1024,0,0,0,0,336.2,0.1,96.112833784272,0,10,Assisted_Takeoff
16400,51.5197567388821,5.86043076610252,0,0,96.112833784272,96.112833784272,0,0,0.09724573802,0.36665355504,26,5,96.112833784272,0,0,0.09724573802,0,0,0,336.1,4.1,-1.3,0,0,1024,1024,1024,1024,0,0,0,0,336.2,0.1,96.112833784272,0,10,Assisted_Takeoff
16600,51.5197567275427,5.86043077991674,0,0,96.112833784272,96.112833784272,0,0,0.092559386164,0.37184712476,26,5,96.112833784272,0,0,0.09724573802,0,0,0,336.1,4.1,-1.3,0,0,1024,1024,1024,1024,0,0,0,0,336.2,0.1,96.112833784272,0,10,Assisted_Takeoff
16800,51.5197567170836,5.86043081185707,0,0,96.112833784272,96.112833784272,0,0,0.087663716716,0.38003938224,26,5,96.112833784272,0,0,0.09724573802,0,0,0,336.1,4.1,-1.3,0,0,1024,1024,1024,1024,0,0,0,0,336.2,0.1,96.112833784272,0,10,Assisted_Takeoff
17000,51.5197567067701,5.86043083838064,0,0,96.112833784272,96.112833784272,0,0,0.083396328128,0.38714240084,26,5,96.112833784272,0,0,0.09724573802,0,0,0,336.1,4.1,-1.3,0,0,1024,1024,1024,1024,0,0,0,0,336.2,0.1,96.112833784272,0,10,Assisted_Takeoff
17200,51.5197566966944,5.86043085955803,0,0,96.112833784272,96.112833784272,0,0,0.07960630176,0.3931922698,26,5,96.112833784272,0,0,0.09724573802,0,0,0,336.1,4.1,-1.3,0,0,1024,1024,1024,1024,0,0,0,0,336.2,0.1,96.112833784272,0,10,Assisted_Takeoff
17400,51.5197566872311,5.8604308770164,0,0,96.112833784272,96.112833784272,0,0,0.076278873832,0.39845145632,26,5,96.112833784272,0,0,0.09724573802,0,0,0,336.1,4.1,-1.3,0,0,1024,1024,1024,1024,0,0,0,0,336.2,0.1,96.112833784272,0,10,Assisted_Takeoff
17600,51.5197566784822,5.86043089027991,0,0,96.112833784272,96.112833784272,0,0,0.0733349761,0.4028379394,26,5,96.112833784272,0,0,0.09724573802,0,0,0,336.2,4.1,-1.3,0,0,1024,1024,1024,1024,0,0,0,0,336.2,0.1,96.112833784272,0,10,Assisted_Takeoff
17800,51.5197566713288,5.86043090315964,0,0,96.112833784272,96.112833784272,0,0,0.0711040049,0.4067585432,26,5,96.112833784272,0,0,0.09724573802,0,0,0,336.2,4.1,-1.3,0,0,1024,1024,1024,1024,0,0,0,0,336.2,0.1,96.112833784272,0,10,Assisted_Takeoff
18000,51.5197566658578,5.8604309166899,0,0,96.112833784272,96.112833784272,0,0,0.069654857872,0.41041996064,26,5,96.112833784272,0,0,0.09724573802,0,0,0,336.2,4.1,-1.3,0,0,1024,1024,1024,1024,0,0,0,0,336.2,0.1,96.112833784272,0,10,Assisted_Takeoff
18200,51.5197566618378,5.8604309291695,0,0,96.112833784272,96.112833784272,0,0,0.068828414276,0.41361221796,26,5,96.112833784272,0,0,0.09724573802,0,0,0,336.2,4.1,-1.3,0,0,1024,1024,1024,1024,0,0,0,0,336.2,0.1,96.112833784272,0,10,Assisted_Takeoff
18400,51.5197566582975,5.86043093792494,0,0,96.112833784272,96.112833784272,0,0,0.068078742336,0.41598098444,26,5,96.112833784272,0,0,0.09724573802,0,0,0,336.2,4.1,-1.3,0,0,1024,1024,1024,1024,0,0,0,0,336.2,0.1,96.112833784272,0,10,Assisted_Takeoff
18600,51.5197566645203,5.86043094205096,0,0,96.112833784272,96.112833784272,0,0,0.070517718792,0.4184383336,26,5,96.112833784272,0,0,0.09724573802,0,0,0,336.2,4.1,-1.3,0,0,1024,1024,1024,1024,0,0,0,0,336.2,0.1,96.112833784272,0,10,Assisted_Takeoff
18800,51.5197566917598,5.8604309528053,0,0,96.112833784272,96.112833784272,0,0,0.08074639366,0.42867127356,26,5,96.112833784272,0,0,0.09724573802,0,0,0,336.2,4.1,-1.3,0,0,1024,1024,1024,1024,0,0,0,0,336.2,0.1,96.112833784272,0,10,Assisted_Takeoff
19000,51.5197567163094,5.86043098179244,0,0,96.112833784272,96.112833784272,0,0,0.09122211578,0.43978675948,26,5,96.112833784272,0,0,0.09724573802,0,0,0,336.2,4.1,-1.3,0,0,1024,1024,1024,1024,0,0,0,0,336.2,0.1,96.112833784272,0,10,Assisted_Takeoff
19200,51.51975673811,5.86043100515545,0,0,96.112833784272,96.112833784272,0,0,0.100458992716,0.44934712724,26,5,96.112833784272,0,0,0.100458992716,0,0,0,336.2,4.1,-1.3,0,0,1024,1024,1024,1024,0,0,0,0,336.2,0.1,96.112833784272,0,10,Assisted_Takeoff
19400,51.5197567562879,5.86043102329361,0,0,96.112833784272,96.112833784272,0,0,0.10809711632,0.4571522456,26,5,96.112833784272,0,0,0.10809711632,0,0,0,336.2,4.1,-1.3,0,0,1024,1024,1024,1024,0,0,0,0,336.2,0.1,96.112833784272,0,10,Assisted_Takeoff
19600,51.5197567706225,5.86043103585754,0,0,96.112833784272,96.112833784272,0,0,0.11399606664,0.46311025104,26,5,96.112833784272,0,0,0.11399606664,0,0,0,336.2,4.1,-1.3,0,0,1024,1024,1024,1024,0,0,0,0,336.2,0.1,96.112833784272,0,10,Assisted_Takeoff
19800,51.5197567810827,5.8604310349394,0,0,96.112833784272,96.112833784272,0,0,0.117500331844,0.46693242964,26,5,96.112833784272,0,0,0.117500331844,0,0,0,336.2,4.1,-1.3,0,0,1024,1024,1024,1024,0,0,0,0,336.2,0.1,96.112833784272,0,10,Assisted_Takeoff
20000,51.5197567885252,5.86043100995351,0,0,96.112833784272,96.112833784272,0,0,0.118274282,0.47322179992,26,5,96.112833784272,0,0,0.118274282,0,0,0,336.2,4.1,-1.3,0,0,1024,1024,1024,1024,0,0,0,0,336.2,0.1,96.112833784272,0,10,Assisted_Takeoff
20200,51.5197567934779,5.86043098667225,0,0,96.112833784272,96.112833784272,0,0,0.11858924264,0.4788057896,26,5,96.112833784272,0,0,0.11858924264,0,0,0,336.2,4.1,-1.3,0,0,1024,1024,1024,1024,0,0,0,0,336.2,0.1,96.112833784272,0,10,Assisted_Takeoff
20400,51.5197567963179,5.86043096789217,0,0,96.112833784272,96.112833784272,0,0,0.118621394872,0.48319555352,26,5,96.112833784272,0,0,0.118621394872,0,0,0,336.2,4.1,-1.3,0,0,1024,1024,1024,1024,0,0,0,0,336.2,0.1,96.112833784272,0,10,Assisted_Takeoff
20600,51.5197567984885,5.86043095044929,0,0,96.112833784272,96.112833784272,0,0,0.118629268888,0.48723426756,26,5,96.112833784272,0,0,0.118629268888,0,0,0,336.2,4.1,-1.3,0,0,1024,1024,1024,1024,0,0,0,0,336.2,0.1,96.112833784272,0,10,Assisted_Takeoff
20800,51.5197567993484,5.86043093459916,0,0,96.112833784272,96.112833784272,0,0,0.118353678328,0.4908464724,26,5,96.112833784272,0,0,0.118629268888,0,0,0,336.2,4.1,-1.3,0,0,1024,1024,1024,1024,0,0,0,0,336.2,0.1,96.112833784272,0,10,Assisted_Takeoff
21000,51.5197567999117,5.86043092000621,0,0,96.112833784272,96.112833784272,0,0,0.118114505092,0.49416340164,26,5,96.112833784272,0,0,0.118629268888,0,0,0,336.2,4.1,-1.3,0,0,1024,1024,1024,1024,0,0,0,0,336.2,0.1,96.112833784272,0,10,Assisted_Takeoff
21200,51.5197567998474,5.86043090437206,0,0,96.112833784272,96.112833784272,0,0,0.117718835788,0.49771327052,26,5,96.112833784272,0,0,0.118629268888,0,0,0,336.2,4.1,-1.4,0,0,1024,1024,1024,1024,0,0,0,0,336.2,0.1,96.112833784272,0,10,Assisted_Takeoff
21400,51.5197568001955,5.86043088802544,0,0,96.112833784272,96.112833784272,0,0,0.117569557568,0.5014271814,26,5,96.112833784272,0,0,0.118629268888,0,0,0,336.2,4.1,-1.4,0,0,1024,1024,1024,1024,0,0,0,0,336.2,0.1,96.112833784272,0,10,Assisted_Takeoff
21600,51.5197568010843,5.86043087196966,0,0,96.112833784272,96.112833784272,0,0,0.117736552324,0.505085318,26,5,96.112833784272,0,0,0.118629268888,0,0,0,336.2,4.1,-1.4,0,0,1024,1024,1024,1024,0,0,0,0,336.2,0.1,96.112833784272,0,10,Assisted_Takeoff
21800,51.5197568031243,5.86043086522518,0,0,96.112833784272,96.112833784272,0,0,0.118448494604,0.50678807396,26,5,96.112833784272,0,0,0.118629268888,0,0,0,336.2,4.1,-1.3,0,0,1024,1024,1024,1024,0,0,0,0,336.2,0.1,96.112833784272,0,10,Assisted_Takeoff
22000,51.5197568066528,5.8604308689571,0,0,96.112833784272,96.112833784272,0,0,0.11975066,0.50833006876,26,5,96.112833784272,0,0,0.11975066,0,0,0,336.2,4.1,-1.3,0,0,1024,1024,1024,1024,0,0,0,0,336.2,0.1,96.112833784272,0,10,Assisted_Takeoff
22200,51.5197568104597,5.86043085061673,0,0,96.112833784272,96.112833784272,0,0,0.121123035372,0.51271983268,26,5,96.112833784272,0,0,0.121123035372,0,0,0,336.2,4.1,-1.4,0,0,1024,1024,1024,1024,0,0,0,0,336.2,0.1,96.112833784272,0,10,Assisted_Takeoff
22400,51.5197568232287,5.86043083581554,0,0,96.112833784272,96.112833784272,0,0,0.125869098516,0.51846458352,26,5,96.112833784272,0,0,0.125869098516,0,0,0,336.2,4.1,-1.4,0,0,1024,1024,1024,1024,0,0,0,0,336.2,0.1,96.112833784272,0,10,Assisted_Takeoff
22600,51.5197568549038,5.86043082237477,0,0,96.112833784272,96.112833784272,0,0,0.137561356108,0.53041668364,26,5,96.112833784272,0,0,0.137561356108,0,0,0,336.2,4.1,-1.3,0,0,1024,1024,1024,1024,0,0,0,0,336.2,0.1,96.112833784272,0,10,Assisted_Takeoff
22800,51.5197568808861,5.86043080887807,0,0,96.112833784272,96.112833784272,0,0,0.147224742244,0.54037731388,26,5,96.112833784272,0,0,0.147224742244,0,0,0,336.2,4.1,-1.3,0,0,1024,1024,1024,1024,0,0,0,0,336.2,0.1,96.112833784272,0,10,Assisted_Takeoff
23000,51.519756902706,5.86043079812373,0,0,96.112833784272,96.112833784272,0,0,0.155357944604,0.5487040858,26,5,96.112833784272,0,0,0.155357944604,0,0,0,336.2,4.1,-1.3,0,0,1024,1024,1024,1024,0,0,0,0,336.2,0.1,96.112833784272,0,10,Assisted_Takeoff
23200,51.5197569208133,5.86043079043703,0,0,96.112833784272,96.112833784272,0,0,0.162095149544,0.55553807552,26,5,96.112833784272,0,0,0.162095149544,0,0,0,336.2,4.1,-1.3,0,0,1024,1024,1024,1024,0,0,0,0,336.2,0.1,96.112833784272,0,10,Assisted_Takeoff
23400,51.5197569366374,5.86043078494111,0,0,96.112833784272,96.112833784272,0,0,0.167961947632,0.56144686836,26,5,96.112833784272,0,0,0.167961947632,0,0,0,336.2,4.1,-1.3,0,0,1024,1024,1484,1024,0,0,70,0,336.2,0.1,96.112833784272,0,10,Assisted_Takeoff
23600,51.5197569506486,5.86043078370115,0,0,96.112833784272,96.112833784272,0,0,0.173077105276,0.56656497876,26,5,96.112833784272,0,0,0.173077105276,0,0,0,336.2,4.1,-1.3,0,0,1024,1024,1684,1024,0,0,100,0,336.2,0.1,96.112833784272,0,10,Assisted_Takeoff
23800,51.5197569607672,5.86043077764764,0,0,96.112833784272,96.112833784272,0,0,0.176887472852,0.5705052676,26,5,96.112833784272,0,0,0.176887472852,0,0,0,336.2,3.9,-1.4,0,0,1024,1024,1684,1024,0,0,100,0,336.2,0.1,96.112833784272,0,10,Assisted_Takeoff
24000,51.5197568982148,5.86043075332949,0,0,96.112833784272,96.112833784272,0,0,0.154951448528,0.59398623948,26,5,96.112833784272,0,0,0.176887472852,0,0,-0.223694,336.3,0.8,-0.9,0,0,1024,1024,1684,1024,0,0,100,0,336.2,0.1,96.112833784272,0,10,Assisted_Takeoff
24200,51.5197567258583,5.86043063810717,0,0,96.112833784272,96.112833784272,0.328084,0,0.103097772328,0.66209319704,26,5,96.112833784272,0,0,0.176887472852,0,0,-1.11847,335.9,-1,1.4,0,0,1024,1024,1684,1024,0,0,100,0,336.2,0.1,96.112833784272,0,6,P-GPS
24400,51.5197566136339,5.86043053923577,0.656168,0.656168,96.112833784272,96.769001784272,0.656168,0,0.087505252144,0.70878611192,26,5,96.769001784272,0.656168,0,0.176887472852,0,0,-2.23694,336.4,-0.2,0.5,0,0,1024,1024,1024,1024,0,0,0,0,336.2,0.1,96.769001784272,0.656168,6,P-GPS
24600,51.5197564952135,5.86043047451529,1.64042,1.6732284,96.080025384272,97.753253784272,1.64042,0,0.087201774444,0.75442259632,27,5,97.753253784272,1.64042,0,0.176887472852,0,0,-3.131716,336,-0.8,1.5,0,0,1024,1024,1024,1024,0,0,0,0,336.2,0.1,97.753253784272,1.64042,6,P-GPS
24800,51.5197563788792,5.86043043116322,2.296588,2.3293964,96.080025384272,98.409421784272,2.624672,0,0.103428481,0.79799215152,27,5,98.409421784272,2.296588,0,0.176887472852,0,0,-2.23694,335.8,-1.5,1.5,0,0,1024,1024,1024,1024,0,0,0,0,336.2,0.1,98.409421784272,2.296588,43,Detour
25000,51.5197563100762,5.86043038448279,2.952756,2.9855644,96.080025384272,99.065589784272,2.952756,0,0.123762799236,0.82523952772,27,5,99.065589784272,2.952756,0,0.176887472852,0,0,-0.894776,336.2,-1.1,1,0,0,1024,1024,1024,1024,0,0,0,0,336.2,0.1,99.065589784272,2.952756,43,Detour
25200,51.5197561934966,5.86043033678441,2.952756,2.9855644,96.080025384272,99.065589784272,3.28084,0,0.157473430236,0.86913060524,26,5,99.065589784272,2.952756,0,0.176887472852,0,0,0,336.1,-0.8,1.1,0,0,1024,1024,1024,1024,0,0,0,0,336.2,0.1,99.065589784272,2.952756,43,Detour
25400,51.5197560744412,5.86043029752825,2.952756,2.9855644,96.080025384272,99.065589784272,3.28084,0,0.194693903868,0.91347443868,26,5,99.065589784272,2.952756,0,0.194693903868,0,0,0.223694,336.2,-1.9,2,0,0,1024,1024,1024,1024,0,0,0,0,336.2,0.1,99.065589784272,2.952756,43,Detour
25600,51.5197560394636,5.86043027508337,2.952756,2.9855644,96.080025384272,99.065589784272,3.28084,0,0.207733602448,0.9272145966,26,5,99.065589784272,2.952756,0,0.207733602448,0,0,0,336.3,-1.5,1.9,0,0,1024,1024,1024,1024,0,0,0,0,336.2,0.1,99.065589784272,2.952756,43,Detour
25800,51.5197560574541,5.86043031160664,2.952756,2.9855644,96.080025384272,99.065589784272,2.952756,0,0.197405190044,0.93779202476,26,5,99.065589784272,2.952756,0,0.207733602448,0,0,0,336.2,-1.2,1.3,0,0,1024,1024,1024,863,0,0,0,-24,336.2,0.1,99.065589784272,2.952756,43,Detour
26000,51.5197561042509,5.86043040982062,2.952756,2.9855644,96.080025384272,99.065589784272,2.952756,0,0.17024442802,0.96587273432,26,5,99.065589784272,2.952756,0,0.207733602448,0,0,0,336.2,-1,0.7,0,0,1024,1024,1024,579,0,0,0,-67,336.2,0.1,99.065589784272,2.952756,43,Detour
26200,51.5197561578401,5.86043051255043,2.952756,2.952756,96.112833784272,99.065589784272,3.28084,0,0.140809059624,0.996309087,26,5,99.065589784272,2.952756,0,0.207733602448,0,0,0,336,-1.1,0.4,0,0,1024,1024,1024,451,0,0,0,-87,334.2,0.1,99.065589784272,2.952756,43,Detour
26400,51.5197562032372,5.86043056384993,2.952756,2.952756,96.112833784272,99.065589784272,3.28084,0,0.12056758916,1.01655515064,26,5,99.065589784272,2.952756,0,0.207733602448,0,0,0,332.4,-1.1,0.2,0,0,1024,1024,1024,458,0,0,0,-86,328.7,0.1,99.065589784272,2.952756,43,Detour
26600,51.5197562448606,5.86043052768033,2.952756,2.952756,96.112833784272,99.065589784272,3.28084,0,0.113488848776,1.03381893072,26,5,99.065589784272,2.952756,0,0.207733602448,0,0,0,325.5,-1,0.4,0,0,1024,1024,1024,409,0,0,0,-93,320.7,0.1,99.065589784272,2.952756,43,Detour
26800,51.5197562608314,5.86043042557781,2.952756,2.9855644,96.080025384272,99.065589784272,3.28084,0,0.126216867556,1.05771985012,26,5,99.065589784272,2.952756,0,0.207733602448,0,0,0,317.1,-0.6,0.9,0,0,1024,1024,1024,402,0,0,0,-94,312.1,0.1,99.065589784272,2.952756,43,Detour
27000,51.5197562439793,5.8604302811429,2.952756,2.9855644,96.080025384272,99.065589784272,3.28084,0,0.156376973508,1.09108271208,26,5,99.065589784272,2.952756,0,0.207733602448,0,0,0,307.9,-0.3,1.8,0,0,1024,1024,1024,390,0,0,0,-96,301.9,0.1,99.065589784272,2.952756,43,Detour
27200,51.519756219494,5.86043012811175,2.952756,2.9855644,96.080025384272,99.065589784272,3.28084,0,0.190693575656,1.12695541664,26,5,99.065589784272,2.952756,0,0.207733602448,0,0,0,297.3,-0.1,2.2,0,0,1024,1024,1024,364,0,0,0,-100,291.4,0.1,99.065589784272,2.952756,43,Detour
27400,51.5197562091955,5.86043000335526,2.952756,2.9855644,96.080025384272,99.065589784272,3.28084,0,0.217423235304,1.15552497136,27,5,99.065589784272,2.952756,0,0.217423235304,0,0,0,286.7,0,2.4,0,0,1024,1024,1024,364,0,0,0,-100,280.3,0.1,99.065589784272,2.952756,43,Detour
27600,51.5197562266998,5.86042989541006,2.952756,2.9855644,96.080025384272,99.065589784272,3.28084,0,0.236992461652,1.18084977532,27,5,99.065589784272,2.952756,0,0.236992461652,0,0,0,275.2,0.4,2.3,0,0,1024,1024,1024,565,0,0,0,-70,268.5,0.1,99.065589784272,2.952756,43,Detour
27800,51.5197562622846,5.86042980607455,2.952756,2.9855644,96.080025384272,99.065589784272,3.28084,0,0.251438000172,1.20493114092,27,5,99.065589784272,2.952756,0,0.251438000172,0,0,0,263.2,0.4,1.8,0,0,1024,1024,1024,1024,0,0,0,0,257.5,0.1,99.065589784272,2.952756,43,Detour
28000,51.5197563293346,5.86042969494814,2.952756,2.9855644,96.080025384272,99.065589784272,3.28084,0,0.26952264642,1.24007221816,27,5,99.065589784272,2.952756,0,0.26952264642,0,0,0,254.9,0.7,1.2,0,0,1024,1024,1266,1024,0,0,37,0,255.4,0.1,99.065589784272,2.952756,43,Detour
28200,51.519756399806,5.8604295844189,2.952756,2.9855644,96.080025384272,99.065589784272,3.28084,0,0.290485901684,1.276000697,27,5,99.065589784272,2.952756,0,0.290485901684,0,0,0,255.7,1.5,1.2,0,0,1024,1024,1365,1024,0,0,52,0,255.4,0.1,99.065589784272,2.952756,43,Detour
28400,51.519756417456,5.86042950141914,2.952756,2.9855644,96.080025384272,99.065589784272,3.28084,0,0.308710967884,1.29591211496,27,5,99.065589784272,2.952756,0,0.308710967884,0,0,0,255.5,0.5,0.7,0,0,1024,1024,1391,1024,0,0,56,0,255.4,0.1,99.065589784272,2.952756,43,Detour
28600,51.5197563668823,5.86042941111817,3.28084,3.3464568,96.047216984272,99.393673784272,3.608924,0,0.3309219266,1.32349413684,27,5,99.393673784272,3.28084,0,0.3309219266,0,0,-0.894776,255.3,1.3,0.4,0,0,1024,1024,1193,1024,0,0,26,0,255.4,0.1,99.393673784272,3.28084,43,Detour
28800,51.5197562719642,5.86042935335901,3.608924,3.6745408,96.047216984272,99.721757784272,3.937008,0,0.34973426316,1.36052497792,27,5,99.721757784272,3.608924,0,0.34973426316,0,0,-2.684328,255.4,0.9,1,0,0,1024,1024,1024,573,0,0,0,-68,255.4,0.1,99.721757784272,3.608924,43,Detour
29000,51.5197561454491,5.86042925529389,4.92126,4.9868768,96.047216984272,101.03409378427,5.249344,0,0.38354331936,1.41177169872,27,5,101.03409378427,4.92126,0,0.38354331936,0,0,-3.35541,255.5,1,1.9,0,0,1024,1024,1024,547,0,0,0,-72,254.9,0.1,101.03409378427,4.92126,43,Detour
29200,51.5197560170419,5.86042907938847,5.577428,5.6430448,96.047216984272,101.69026178427,5.905512,0,0.437417993,1.47333338048,27,5,101.69026178427,5.577428,0,0.437417993,0,0,-1.565858,253.6,1.7,2.1,0,0,1024,1024,1024,386,0,0,0,-97,249.4,0.1,101.69026178427,5.577428,43,Detour
29400,51.5197558823294,5.86042887247292,5.905512,5.9711288,96.047216984272,102.01834578427,6.233596,0,0.50043636772,1.54131894696,27,5,102.01834578427,5.905512,0,0.50043636772,0,0,-0.223694,246.8,2,1.3,0,0,1024,1024,1024,1024,0,0,0,0,242.2,0.1,102.01834578427,5.905512,43,Detour
29600,51.5197557756274,5.86042867574894,5.905512,5.9711288,96.047216984272,102.01834578427,6.233596,0,0.55779857428,1.60056763652,27,5,102.01834578427,5.905512,0,0.55779857428,0,0,0,239.1,3.1,1.8,0,0,1024,1024,1024,1024,0,0,0,0,238.3,0.1,102.01834578427,5.905512,43,Detour
29800,51.5197557692686,5.86042852541025,5.905512,5.9711288,96.047216984272,102.01834578427,6.233596,0,0.58933400836,1.6347769552,27,5,102.01834578427,5.905512,0,0.58933400836,0,0,0,238.3,2.7,1.5,0,0,1024,1225,1024,1024,0,30,0,0,238.2,0.1,102.01834578427,5.905512,43,Detour
30000,51.5197558091722,5.86042845398315,5.905512,5.9711288,96.047216984272,102.01834578427,6.233596,0,0.597851069,1.65656829448,27,5,102.01834578427,5.905512,0,0.597851069,0,0,0,238.4,2.7,0.9,0,0,1024,1323,1024,1024,0,45,0,0,238.2,0.1,102.01834578427,5.905512,43,Detour
30200,51.5197559157478,5.86042837488397,5.905512,5.9711288,96.047216984272,102.01834578427,6.233596,0,0.59989175148,1.69939966068,27,5,102.01834578427,5.905512,0,0.59989175148,0,0,0,238,0.5,6.2,0,0,1024,1350,1024,1024,0,49,0,0,238.2,0.1,102.01834578427,5.905512,43,Detour
30400,51.5197562360795,5.86042785882988,5.905512,5.9711288,96.047216984272,102.01834578427,6.233596,0.8052984,0.68653873588,1.86488523028,27,5,102.01834578427,5.905512,0.8052984,0.68653873588,0.447388,-0.671082,0,238,-1.9,19.8,0,0,1024,1024,1024,1024,0,0,0,0,238.2,0.1,102.01834578427,5.905512,43,Detour
30600,51.5197573483138,5.86042615685514,5.905512,6.0039372,96.014408584272,102.01834578427,6.233596,2.5277422,1.11339242408,2.42521661304,27,5,102.01834578427,5.905512,2.5277422,1.11339242408,1.789552,-1.789552,0,238,0.9,24.7,0,0,1024,526,1024,1024,0,-75,0,0,238.2,0.1,102.01834578427,5.905512,43,Detour
30800,51.5197595520601,5.86042317322524,5.905512,6.069554,95.948791784272,102.01834578427,6.233596,3.802798,2.07389114248,3.476542106,27,5,102.01834578427,5.905512,3.802798,2.07389114248,2.908022,-2.460634,0,237.1,3.4,4.6,0,0,1024,470,1024,1024,0,-84,0,0,238.2,0.1,102.01834578427,5.905512,43,Detour
31000,51.5197618838485,5.86041993018895,5.905512,6.1351708,95.883174984272,102.01834578427,6.233596,2.8632832,3.1691930148,4.6016405672,27,5,102.01834578427,5.905512,3.802798,3.1691930148,2.23694,-1.789552,0,235.9,3.1,-25.7,0,0,1024,504,1024,1024,0,-79,0,0,238.2,0.1,102.01834578427,5.905512,43,Detour
31200,51.5197629884711,5.8604183032348,5.905512,6.1679792,95.850366584272,102.01834578427,6.233596,0.3131716,3.7101051056,5.1483269364,27,5,102.01834578427,5.905512,3.802798,3.7101051056,0.223694,-0.223694,0,237.9,6.1,-29.5,0,0,1024,520,1024,1024,0,-76,0,0,238.2,0.1,102.01834578427,5.905512,43,Detour
31400,51.519762360023,5.86041877258297,5.905512,6.1351708,95.883174984272,102.01834578427,5.905512,1.9237684,3.4831365944,5.4011484668,27,5,102.01834578427,5.905512,3.802798,3.7101051056,-1.565858,1.11847,0,239.8,5.7,-22.4,0,0,1024,1024,1024,1024,0,0,0,0,238.2,0.1,102.01834578427,5.905512,43,Detour
31600,51.5197604125611,5.86042096241287,6.233596,6.4304464,95.915983384272,102.34642978427,6.233596,3.5343652,2.66586950788,6.2683400956,27,5,102.34642978427,6.233596,3.802798,3.7101051056,-2.908022,2.013246,-0.223694,239.2,-1,-13.1,0,0,1024,1024,1024,1024,0,0,0,0,238.2,0.1,102.34642978427,6.233596,43,Detour
31800,51.5197577960312,5.86042372031959,6.233596,6.397638,95.948791784272,102.34642978427,6.56168,3.7133204,1.69016409608,7.4099739904,27,5,102.34642978427,6.233596,3.802798,3.7101051056,-3.131716,2.013246,-0.223694,236.2,0,13.1,0,0,1067,1024,1024,1024,7,0,0,0,238.2,0.1,102.34642978427,6.233596,43,Detour
32000,51.5197556362128,5.86042574604261,6.233596,6.3648296,95.981600184272,102.34642978427,6.889764,1.9908766,1.20047247936,8.3223755944,27,5,102.34642978427,6.233596,3.802798,3.7101051056,-1.789552,0.894776,0,236.2,3,21.4,0,0,1173,1024,1024,1024,23,0,0,0,238.2,0.1,102.34642978427,6.233596,43,Detour
32200,51.5197546489301,5.86042659401656,6.233596,6.3320212,96.014408584272,102.34642978427,6.889764,0.7158208,1.17581040508,8.730807366,27,5,102.34642978427,6.233596,3.802798,3.7101051056,-0.671082,0.223694,0,235.5,1.6,10.3,0,0,1293,1024,1024,1024,41,0,0,0,238.2,0.1,102.34642978427,6.233596,43,Detour
32400,51.5197542289309,5.86042678439532,6.56168,6.6601052,96.014408584272,102.67451378427,6.889764,0.447388,1.23644032828,8.8900265312,27,5,102.67451378427,6.56168,3.802798,3.7101051056,-0.447388,0,0,236.6,-2.7,6.6,0,0,1231,1024,1024,1024,31,0,0,0,238.2,0.1,102.67451378427,6.56168,43,Detour
32600,51.5197539885285,5.86042629643519,6.56168,6.6929136,95.981600184272,102.67451378427,6.889764,0.8052984,1.37753941416,9.0312995016,27,5,102.67451378427,6.56168,3.802798,3.7101051056,-0.447388,-0.671082,0,236.4,-13,2.8,0,0,1024,1024,1024,1024,0,0,0,0,238.2,0.1,102.67451378427,6.56168,43,Detour
32800,51.5197534234841,5.86042459293051,6.233596,6.397638,95.948791784272,102.34642978427,6.889764,2.1027236,1.8069882468,9.4695541088,27,5,102.67451378427,6.56168,3.802798,3.7101051056,-1.11847,-1.789552,0,236.2,-16.9,1.8,0,0,933,1024,1024,1024,-14,0,0,0,238.2,0.1,102.34642978427,6.233596,43,Detour
33000,51.5197522919946,5.8604216011045,6.233596,6.4632548,95.883174984272,102.34642978427,6.889764,2.7290668,2.59794299652,10.2644032156,27,5,102.67451378427,6.56168,3.802798,3.7101051056,-1.565858,-2.23694,0,236.9,15.2,1.1,0,0,826,1024,1024,1024,-30,0,0,0,238.2,0.1,102.34642978427,6.233596,43,Detour
33200,51.5197513760592,5.86041939504307,6.233596,6.5288716,95.817558184272,102.34642978427,6.56168,1.11847,3.19963921,10.8665029724,27,5,102.67451378427,6.56168,3.802798,3.7101051056,-0.671082,-0.894776,0,236.7,20.8,0.4,0,0,817,1024,1024,1024,-31,0,0,0,238.2,0.1,102.34642978427,6.233596,43,Detour
33400,51.5197510711073,5.8604189612228,6.56168,6.8569556,95.817558184272,102.67451378427,6.233596,0,3.344652338,11.015092216,27,5,102.67451378427,6.56168,3.802798,3.7101051056,0,0,0,236.9,13.6,-1.2,0,0,779,1024,1024,1024,-37,0,0,0,238.2,0.1,102.67451378427,6.56168,43,Detour
33600,51.5197511191441,5.86041968749445,6.56168,6.8569556,95.817558184272,102.67451378427,6.233596,0.894776,3.20223763528,11.1809058696,27,5,102.67451378427,6.56168,3.802798,3.7101051056,0,0.894776,0,237.7,12.5,2,0,0,1024,1024,1024,1024,0,0,0,0,238.2,0.1,102.67451378427,6.56168,43,Detour
33800,51.5197515586115,5.86042124711278,6.56168,6.8241472,95.850366584272,102.67451378427,6.56168,1.2974252,2.82534129776,11.5695869844,27,5,102.67451378427,6.56168,3.802798,3.7101051056,0.671082,1.11847,0,236.8,9.3,8.5,0,0,1024,1024,1024,1024,0,0,0,0,238.2,0.1,102.67451378427,6.56168,43,Detour
34000,51.5197525072682,5.86042293918033,6.56168,6.7585304,95.915983384272,102.67451378427,6.56168,1.5882274,2.3089075542,12.0866473684,27,5,102.67451378427,6.56168,3.802798,3.7101051056,1.11847,1.11847,-0.447388,236.4,-6.3,1.4,0,0,1024,1024,1024,1024,0,0,0,0,238.2,0.1,102.67451378427,6.56168,43,Detour
34200,51.519753326905,5.86042399660655,6.889764,7.053806,95.948791784272,103.00259778427,6.889764,0.4921268,1.93608273912,12.470144756,27,5,103.00259778427,6.889764,3.802798,3.7101051056,0.447388,0.223694,0,237,-9.9,-1.3,0,0,1024,1024,1024,1024,0,0,0,0,238.2,0.1,103.00259778427,6.889764,43,Detour
34400,51.5197536782286,5.8604242061952,6.889764,7.053806,95.948791784272,103.00259778427,7.217848,0,1.8232120006,12.6068573588,27,5,103.00259778427,6.889764,3.802798,3.7101051056,0,0,0,236.9,-0.6,-0.5,0,0,1024,1024,1024,1024,0,0,0,0,238.2,0.1,103.00259778427,6.889764,43,Detour
34600,51.5197538078995,5.86042413999554,6.889764,7.053806,95.948791784272,103.00259778427,7.217848,0,1.8097769608,12.656496468,27,5,103.00259778427,6.889764,3.802798,3.7101051056,0,0,0,236.8,0.9,0.1,0,0,1024,1024,1024,1024,0,0,0,0,238.2,0.1,103.00259778427,6.889764,43,Detour
34800,51.5197538304487,5.8604239615887,6.889764,7.053806,95.948791784272,103.00259778427,6.889764,0,1.83970150244,12.697835052,27,5,103.00259778427,6.889764,3.802798,3.7101051056,0,0,0,237,1.9,0.8,0,0,1024,1024,1024,1024,0,0,0,0,238.2,0.1,103.00259778427,6.889764,43,Detour
35000,51.519753841637,5.86042374415458,6.889764,7.053806,95.948791784272,103.00259778427,6.889764,0,1.87979664808,12.747375736,27,5,103.00259778427,6.889764,3.802798,3.7101051056,0,0,0,237,3.1,1.6,0,0,1024,1024,1024,1024,0,0,0,0,238.2,0.1,103.00259778427,6.889764,43,Detour
35200,51.5197538999756,5.86042359139578,6.889764,7.053806,95.948791784272,103.00259778427,6.889764,0,1.89903877468,12.788058152,27,5,103.00259778427,6.889764,3.802798,3.7101051056,0,0,0,237.1,2.9,1.3,0,0,1024,1024,1024,1024,0,0,0,0,238.2,0.1,103.00259778427,6.889764,43,Detour
35400,51.5197540033085,5.86042347514302,6.889764,7.0866144,95.915983384272,103.00259778427,6.889764,0,1.9038386436,12.8340883372,27,5,103.00259778427,6.889764,3.802798,3.7101051056,0,0,0,237.1,2.4,0.7,0,0,1024,1024,1024,1024,0,0,0,0,238.2,0.1,103.00259778427,6.889764,43,Detour
35600,51.5197541102557,5.8604234003368,6.889764,7.0866144,95.915983384272,103.00259778427,6.889764,0,1.900754654,12.876640832,27,5,103.00259778427,6.889764,3.802798,3.7101051056,0,0,0,236.9,2,1,0,0,1024,1024,1024,1024,0,0,0,0,238.2,0.1,103.00259778427,6.889764,43,Detour
35800,51.5197542104639,5.86042332959981,6.889764,7.0866144,95.915983384272,103.00259778427,6.889764,0,1.89885832848,12.9165686548,27,5,103.00259778427,6.889764,3.802798,3.7101051056,0,0,0,237,2.1,0.9,0,0,1024,1024,1024,1024,0,0,0,0,238.2,0.1,103.00259778427,6.889764,43,Detour
36000,51.5197543248643,5.86042324348596,6.889764,7.0866144,95.915983384272,103.00259778427,6.889764,0,1.89882223924,12.9626644568,27,5,103.00259778427,6.889764,3.802798,3.7101051056,0,0,0,237,2.2,0.4,0,0,1024,1024,1024,1024,0,0,0,0,238.2,0.1,103.00259778427,6.889764,43,Detour
36200,51.5197544301537,5.86042317558856,6.889764,7.0866144,95.915983384272,103.00259778427,6.889764,0,1.89741147804,13.0040358492,27,5,103.00259778427,6.889764,3.802798,3.7101051056,0,0,0,236.9,2,0.2,0,0,1024,1024,1024,1024,0,0,0,0,238.2,0.1,103.00259778427,6.889764,43,Detour
36400,51.5197545055264,5.86042312426023,6.889764,7.0866144,95.915983384272,103.00259778427,6.889764,0,1.89752630744,13.0339243016,27,5,103.00259778427,6.889764,3.802798,3.7101051056,0,0,0,236.9,2.1,0.4,0,0,1024,1024,1024,1024,0,0,0,0,238.2,0.1,103.00259778427,6.889764,43,Detour
36600,51.5197545530696,5.86042310399625,6.889764,7.0866144,95.915983384272,103.00259778427,6.889764,0,1.89528549372,13.0518704964,27,5,103.00259778427,6.889764,3.802798,3.7101051056,0,0,0,237,2.1,0.3,0,0,1024,1024,1024,1024,0,0,0,0,238.2,0.1,103.00259778427,6.889764,43,Detour
36800,51.5197545653781,5.86042312501875,6.889764,7.0866144,95.915983384272,103.00259778427,6.889764,0,1.889189693,13.058399368,27,5,103.00259778427,6.889764,3.802798,3.7101051056,0,0,0,236.9,2,0.8,0,0,1024,1024,1024,1024,0,0,0,0,238.2,0.1,103.00259778427,6.889764,43,Detour
37000,51.5197545712079,5.86042313968141,6.889764,7.0866144,95.915983384272,103.00259778427,6.889764,0,1.88530845928,13.0623691844,27,5,103.00259778427,6.889764,3.802798,3.7101051056,0,0,0,237,2,1.1,0,0,1024,1024,1024,1024,0,0,0,0,238.2,0.1,103.00259778427,6.889764,43,Detour
37200,51.5197545749655,5.86042315152081,6.889764,7.0866144,95.915983384272,103.00259778427,6.889764,0,1.88230649068,13.0653875572,27,5,103.00259778427,6.889764,3.802798,3.7101051056,0,0,0,237,2.1,1.2,0,0,1024,1024,1024,1024,0,0,0,0,238.2,0.1,103.00259778427,6.889764,43,Detour
37400,51.5197545948675,5.8604231587747,6.889764,7.0866144,95.915983384272,103.00259778427,6.889764,0,1.87810701548,13.072835064,27,5,103.00259778427,6.889764,3.802798,3.7101051056,0,0,0,237,2.1,0.8,0,0,1024,1024,1026,1024,0,0,0,0,238.2,0.1,103.00259778427,6.889764,43,Detour
37600,51.5197546219839,5.86042316077317,6.889764,7.0866144,95.915983384272,103.00259778427,6.889764,0,1.87408470564,13.0827103924,27,5,103.00259778427,6.889764,3.802798,3.7101051056,0,0,0,237,2.1,0.8,0,0,1024,1024,1091,1024,0,0,10,0,238.2,0.1,103.00259778427,6.889764,43,Detour
37800,51.5197546429022,5.86042317474486,6.889764,7.0866144,95.915983384272,103.00259778427,6.889764,0,1.86837932488,13.0909781092,27,5,103.00259778427,6.889764,3.802798,3.7101051056,0,0,0,237,0.9,1.1,0,0,1024,1024,1110,1024,0,0,13,0,238.2,0.1,103.00259778427,6.889764,43,Detour
38000,51.5197546421804,5.86042311207749,6.889764,7.0866144,95.915983384272,103.00259778427,6.889764,0,1.88176187124,13.1052169548,27,5,103.00259778427,6.889764,3.802798,3.7101051056,0,0,0,236.9,0.7,0.7,0,0,1024,1024,1111,1024,0,0,13,0,238.2,0.1,103.00259778427,6.889764,43,Detour
38200,51.5197545912062,5.86042293811118,6.889764,7.0866144,95.915983384272,103.00259778427,6.889764,0,1.92529205636,13.1488849352,27,5,103.00259778427,6.889764,3.802798,3.7101051056,0,0,0,236.9,1.3,0.8,0,0,1024,1024,1116,1024,0,0,14,0,238.2,0.1,103.00259778427,6.889764,43,Detour
38400,51.5197545266364,5.86042272936279,6.889764,7.0866144,95.915983384272,103.00259778427,6.889764,0,1.97798234676,13.2018048844,27,5,103.00259778427,6.889764,3.802798,3.7101051056,0,0,-0.223694,237,1.7,0.8,0,0,1024,1024,1163,1024,0,0,21,0,238.2,0.1,103.00259778427,6.889764,43,Detour
38600,51.5197544555043,5.86042250359015,6.889764,7.0866144,95.915983384272,103.00259778427,7.217848,0,2.03515098376,13.2592523928,27,5,103.00259778427,6.889764,3.802798,3.7101051056,0,0,-0.223694,237,1.7,0.8,0,0,1024,1024,1211,1024,0,0,28,0,238.2,0.1,103.00259778427,6.889764,43,Detour
38800,51.5197543768108,5.86042227318767,7.217848,7.4475068,95.883174984272,103.33068178427,7.217848,0,2.094324214,13.3189308724,27,5,103.33068178427,7.217848,3.802798,3.7101051056,0,0,-0.223694,237,1.8,0.7,0,0,1024,1024,1249,1024,0,0,34,0,238.2,0.1,103.33068178427,7.217848,43,Detour
39000,51.519754269355,5.86042206027282,7.217848,7.4475068,95.883174984272,103.33068178427,7.217848,0,2.15374350724,13.3811684072,27,5,103.33068178427,7.217848,3.802798,3.7101051056,0,0,-0.671082,236.9,1.9,1,0,0,1024,1024,1249,1024,0,0,34,0,238.2,0.1,103.33068178427,7.217848,43,Detour
39200,51.5197541529574,5.86042185598691,7.545932,7.7755908,95.883174984272,103.65876578427,7.545932,0,2.21275269548,13.4440293016,27,5,103.65876578427,7.545932,3.802798,3.7101051056,0,0,-1.11847,237,2,1.1,0,0,1024,1024,1252,1024,0,0,35,0,238.2,0.1,103.65876578427,7.545932,43,Detour
39400,51.5197540345617,5.86042166018924,8.2021,8.4317588,95.883174984272,104.31493378427,7.874016,0,2.27048563696,13.5060371776,27,5,104.31493378427,8.2021,3.802798,3.7101051056,0,0,-1.342164,237,2,1.1,0,0,1024,1024,1261,1024,0,0,36,0,238.2,0.1,104.31493378427,8.2021,43,Detour
39600,51.5197539277505,5.8604214551048,8.530184,8.7598428,95.883174984272,104.64301778427,8.530184,0,2.3286746152,13.5667327176,27,5,104.64301778427,8.530184,3.802798,3.7101051056,0,0,-1.342164,237,2.1,0.9,0,0,1024,1024,1266,1024,0,0,37,0,238.2,0.1,104.64301778427,8.530184,43,Detour
39800,51.519753862248,5.86042125412014,8.858268,9.0879268,95.883174984272,104.97110178427,8.858268,0,2.38005585044,13.6182419056,27,5,104.97110178427,8.858268,3.802798,3.7101051056,0,0,-1.342164,237,2,0.8,0,0,1024,1024,1265,1024,0,0,37,0,238.2,0.1,104.97110178427,8.858268,43,Detour
40000,51.5197538056378,5.86042105082206,9.514436,9.7440948,95.883174984272,105.62726978427,9.186352,0,2.43061687568,13.66879965,27,5,105.62726978427,9.514436,3.802798,3.7101051056,0,0,-1.565858,237,2,0.6,0,0,1024,1024,1265,1024,0,0,37,0,238.2,0.1,105.62726978427,9.514436,43,Detour
40200,51.5197537399296,5.86042085039047,9.84252,10.0721788,95.883174984272,105.95535378427,9.84252,0,2.48191937076,13.7202432212,27,5,105.95535378427,9.84252,3.802798,3.7101051056,0,0,-1.565858,237,2.1,0.7,0,0,1024,1024,1255,1024,0,0,35,0,238.2,0.1,105.95535378427,9.84252,43,Detour
40400,51.5197536848765,5.86042066988426,10.498688,10.7283468,95.883174984272,106.61152178427,10.170604,0,2.52751648508,13.7658797056,27,5,106.61152178427,10.498688,3.802798,3.7101051056,0,0,-1.565858,237,1.9,0.7,0,0,1024,1024,1254,1024,0,0,35,0,238.2,0.1,106.61152178427,10.498688,43,Detour
40600,51.5197536572493,5.86042044829099,10.826772,11.0892392,95.850366584272,106.93960578427,10.498688,0,2.5776411586,13.8171920432,27,5,106.93960578427,10.826772,3.802798,3.7101051056,0,0,-1.342164,237,1.9,0.8,0,0,1024,1024,1254,1024,0,0,35,0,238.2,0.1,106.93960578427,10.826772,43,Detour
40800,51.5197536413695,5.86042022118374,11.154856,11.4173232,95.850366584272,107.26768978427,11.154856,0,2.62727042528,13.8690621236,27,5,107.26768978427,11.154856,3.802798,3.7101051056,0,0,-1.342164,237,3.4,1.6,0,0,1024,1024,1254,1024,0,0,35,0,238.2,0.1,107.26768978427,11.154856,43,Detour
41000,51.5197536850297,5.8604200690505,11.811024,12.0734912,95.850366584272,107.92385778427,11.48294,0,2.652887224,13.9071198676,27,5,107.92385778427,11.811024,3.802798,3.7101051056,0,0,-1.342164,237.1,3.2,1.3,0,0,1024,1024,1254,1024,0,0,35,0,238.2,0.1,107.92385778427,11.811024,43,Detour
41200,51.5197537817351,5.86041997343152,12.139108,12.4015752,95.850366584272,108.25194178427,11.811024,0,2.65968840532,13.9485240684,27,5,108.25194178427,12.139108,3.802798,3.7101051056,0,0,-1.342164,237.1,2.6,1.2,0,0,1024,1024,1255,1024,0,0,35,0,238.2,0.1,108.25194178427,12.139108,43,Detour
41400,51.5197539215866,5.8604199048565,12.467192,12.7296592,95.850366584272,108.58002578427,12.139108,0,2.65581045244,14.0018705268,27,5,108.58002578427,12.467192,3.802798,3.7101051056,0,0,-1.342164,237.1,2.3,0.8,0,0,1024,1024,1262,1024,0,0,36,0,238.2,0.1,108.58002578427,12.467192,43,Detour
41600,51.5197540701668,5.86041983799083,13.12336,13.3858272,95.850366584272,109.23619378427,12.795276,0,2.651574888,14.0581697412,27,5,109.23619378427,13.12336,3.802798,3.7101051056,0,0,-1.342164,237,2.2,0.6,0,0,1024,1024,1267,1024,0,0,37,0,238.2,0.1,109.23619378427,13.12336,43,Detour
41800,51.519754205902,5.86041978424152,13.451444,13.7139112,95.850366584272,109.56427778427,13.12336,0,2.6471621582,14.1091868032,27,5,109.56427778427,13.451444,3.802798,3.7101051056,0,0,-1.342164,236.9,2,0.6,0,0,1024,1024,1295,1024,0,0,41,0,238.2,0.1,109.56427778427,13.451444,43,Detour
42000,51.5197543018835,5.86041975082934,13.779528,14.0419952,95.850366584272,109.89236178427,13.451444,0,2.64363853604,14.145013576,27,5,109.89236178427,13.779528,3.802798,3.7101051056,0,0,-1.565858,236.9,1.9,0.8,0,0,1024,1024,1296,1024,0,0,41,0,238.2,0.1,109.89236178427,13.779528,43,Detour
42200,51.5197544033489,5.86041972608804,14.435696,14.6981632,95.850366584272,110.54852978427,14.107612,0,2.63813328652,14.1824479604,26,5,110.54852978427,14.435696,3.802798,3.7101051056,0,0,-1.789552,237,2.2,0.7,0,0,1024,1024,1297,1024,0,0,41,0,238.2,0.1,110.54852978427,14.435696,43,Detour
42400,51.5197544968792,5.86041968318772,15.091864,15.3543312,95.850366584272,111.20469778427,14.76378,0,2.6379101894,14.2179466492,27,5,111.20469778427,15.091864,3.802798,3.7101051056,0,0,-2.013246,237,2.1,0.8,0,0,1024,1024,1343,1024,0,0,48,0,238.2,0.1,111.20469778427,15.091864,43,Detour
42600,51.5197546014394,5.86041962793601,15.748032,16.0104992,95.850366584272,111.86086578427,15.419948,0,2.63982291912,14.2581041308,27,5,111.86086578427,15.748032,3.802798,3.7101051056,0,0,-2.013246,237,2.3,0.9,0,0,1024,1024,1352,1024,0,0,50,0,238.2,0.1,111.86086578427,15.748032,43,Detour
42800,51.5197547153793,5.86041956166795,16.4042,16.6666672,95.850366584272,112.51703378427,16.076116,0,2.64393381164,14.3022970456,27,5,112.51703378427,16.4042,3.802798,3.7101051056,0,0,-2.460634,237,2.3,0.9,0,0,1024,1024,1352,1024,0,0,50,0,238.2,0.1,112.51703378427,16.4042,43,Detour
43000,51.519754823347,5.86041950254642,17.060368,17.3228352,95.850366584272,113.17320178427,16.732284,0,2.64769365428,14.3439309052,27,5,113.17320178427,17.060368,3.802798,3.7101051056,0,0,-2.908022,237,2.3,0.8,0,0,1024,1024,1301,1024,0,0,42,0,238.2,0.1,113.17320178427,17.060368,43,Detour
43200,51.5197549671479,5.8604194489051,18.04462,18.3398956,95.817558184272,114.15745378427,17.716536,0,2.648130006,14.3977694896,27,5,114.15745378427,18.04462,3.802798,3.7101051056,0,0,-3.131716,237,2.1,0.7,0,0,1024,1024,1320,1024,0,0,45,0,238.2,0.1,114.15745378427,18.04462,43,Detour
43400,51.5197550686165,5.86041940494424,19.028872,19.3241476,95.817558184272,115.14170578427,18.700788,0,2.6504594024,14.4361225092,27,5,115.14170578427,19.028872,3.802798,3.7101051056,0,0,-2.460634,237,2,0.8,0,0,1024,1024,1447,1024,0,0,64,0,238.2,0.1,115.14170578427,19.028872,43,Detour
43600,51.5197551684649,5.86041935329387,19.68504,19.9803156,95.817558184272,115.79787378427,19.356956,0,2.6551674078,14.474409912,27,5,115.79787378427,19.68504,3.802798,3.7101051056,0,0,-2.684328,236.9,1.8,0.6,0,0,1024,1024,1472,1024,0,0,68,0,238.2,0.1,115.79787378427,19.68504,43,Detour
43800,51.5197552813211,5.86041928045084,20.997376,21.2926516,95.817558184272,117.11020978427,20.669292,0,2.66437672568,14.5187668688,27,5,117.11020978427,20.997376,3.802798,3.7101051056,0,0,-4.47388,236.9,2.2,0.7,0,0,1024,1024,1467,1024,0,0,67,0,238.2,0.1,117.11020978427,20.997376,43,Detour
44000,51.5197553825777,5.8604192384222,22.309712,22.6049876,95.817558184272,118.42254578427,21.981628,0,2.66800205388,14.556923038,27,5,118.42254578427,22.309712,3.802798,3.7101051056,0,0,-5.144962,237,2.3,0.7,0,0,1024,1024,1457,1024,0,0,66,0,238.2,0.1,118.42254578427,22.309712,43,Detour
44200,51.5197554686076,5.86041924605233,23.950132,24.2454076,95.817558184272,120.06296578427,23.622048,0,2.6617618962,14.5883534852,27,5,120.06296578427,23.950132,3.802798,3.7101051056,0,0,-5.59235,237,1.9,0.8,0,0,1024,1024,1444,1024,0,0,64,0,238.2,0.1,120.06296578427,23.950132,43,Detour
44400,51.5197555707509,5.86041923826021,25.918636,26.1811032,95.850366584272,122.03146978427,25.590552,0,2.65861557064,14.625656636,27,5,122.03146978427,25.918636,3.802798,3.7101051056,0,0,-5.59235,237,1.9,0.6,0,0,1024,1024,1442,1024,0,0,63,0,238.2,0.1,122.03146978427,25.918636,43,Detour
44600,51.5197556611243,5.86041922548782,27.559056,27.8215232,95.850366584272,123.67188978427,27.230972,0,2.65759194856,14.6587603116,27,5,123.67188978427,27.559056,3.802798,3.7101051056,0,0,-5.368656,236.9,1.9,0.6,0,0,1024,1024,1442,1024,0,0,63,0,238.2,0.1,123.67188978427,27.559056,43,Detour
